Time,header.seq,header.stamp.secs,header.stamp.nsecs,header.frame_id,latitude.data,longitude.data,altitude.data,utm_easting.data,utm_northing.data,zone_num.data,zone_letter.data,fix_quality.data
1645139237.6543279,3041,0,0,,42.33707867166667,-71.08686817499999,12.577,328082.0625283116,4689311.883918799,19.0,T,5
1645139237.8655822,3042,0,0,,42.33707855166668,-71.08686811333334,12.569,328082.06728165946,4689311.870469039,19.0,T,5
1645139238.0604692,3043,0,0,,42.337078203333334,-71.08686805666666,12.551,328082.07100085285,4689311.831674713,19.0,T,5
1645139238.2537782,3044,0,0,,42.33707784666667,-71.08686783333332,12.55,328082.0884280469,4689311.791618065,19.0,T,5
1645139238.450816,3045,0,0,,42.33707749,-71.08686736333334,12.566,328082.12617669196,4689311.7510627005,19.0,T,5
1645139238.659231,3046,0,0,,42.3370771,-71.08686689166666,12.521,328082.16397181305,4689311.706802556,19.0,T,5
1645139238.8605895,3047,0,0,,42.33707678333334,-71.08686613166667,12.509,328082.2257209079,4689311.670102563,19.0,T,5
1645139239.0534031,3048,0,0,,42.337076475,-71.08686520999998,12.539,328082.30081150506,4689311.634001061,19.0,T,5
1645139239.3519254,3049,0,0,,42.337075818333346,-71.086864315,12.543,328082.3727559379,4689311.559273722,19.0,T,5
1645139239.5291378,3050,0,0,,42.337075005,-71.086863715,12.5,328082.41997007444,4689311.467746178,19.0,T,5
1645139239.7371297,3051,0,0,,42.337074603333335,-71.08686315333333,12.552,328082.46514798916,4689311.422008578,19.0,T,5
1645139239.8617218,3052,0,0,,42.337073695,-71.08686255666667,12.522,328082.5118286285,4689311.319938749,19.0,T,5
1645139240.1441252,3053,0,0,,42.337073221666664,-71.08686186333333,12.527,328082.5676585087,4689311.265976909,19.0,T,5
1645139240.258696,3054,0,0,,42.33707271833334,-71.08686084833333,12.515,328082.64990691177,4689311.20803345,19.0,T,5
1645139240.5365653,3055,0,0,,42.337072146666664,-71.08685964833333,12.504,328082.74721019564,4689311.142128063,19.0,T,5
1645139240.7340825,3056,0,0,,42.33707188333333,-71.08685898,12.526,328082.8015527433,4689311.111535663,19.0,T,5
1645139240.9533834,3057,0,0,,42.337071211666675,-71.08685833833333,12.482,328082.85258562653,4689311.035654885,19.0,T,5
1645139241.1463447,3058,0,0,,42.33707089333333,-71.08685769666666,12.512,328082.90458138275,4689310.999009072,19.0,T,5
1645139241.3589747,3059,0,0,,42.33707010666667,-71.08685718,12.496,328082.94500284304,4689310.910611148,19.0,T,5
1645139241.5548096,3060,0,0,,42.337069119999995,-71.08685643333334,12.525,328083.003827669,4689310.799539735,19.0,T,5
1645139241.758194,3061,0,0,,42.33706862666667,-71.08685610166668,12.466,328083.02980740217,4689310.744088271,19.0,T,5
1645139241.857556,3062,0,0,,42.337068075,-71.08685516,12.447,328083.10588259116,4689310.680926035,19.0,T,5
1645139242.1552455,3063,0,0,,42.33706780166668,-71.086854365,12.436,328083.17063323746,4689310.648967123,19.0,T,5
1645139242.3469648,3064,0,0,,42.337067231666666,-71.086853585,12.402,328083.2333396722,4689310.584095968,19.0,T,5
1645139242.4626281,3065,0,0,,42.33706638,-71.086852645,12.393,328083.30846002523,4689310.487624396,19.0,T,5
1645139242.768472,3066,0,0,,42.33706589833334,-71.08685185499999,12.435,328083.3722310246,4689310.43254177,19.0,T,5
1645139242.9772663,3067,0,0,,42.33706536666667,-71.08685125666666,12.459,328083.4200754458,4689310.372294535,19.0,T,5
1645139243.152329,3068,0,0,,42.33706469499999,-71.08685087500001,12.437,328083.4496884222,4689310.296939426,19.0,T,5
1645139243.3494687,3069,0,0,,42.33706442,-71.08685058166667,12.432,328083.47310507996,4689310.265809717,19.0,T,5
1645139243.55837,3070,0,0,,42.337064221666665,-71.086850065,12.421,328083.51512982073,4689310.242741718,19.0,T,5
1645139243.7514904,3071,0,0,,42.337064198333344,-71.08684966000001,12.421,328083.5484318715,4689310.239331902,19.0,T,5
1645139243.9536402,3072,0,0,,42.33706413833334,-71.08684925833333,12.405,328083.58135939064,4689310.23185727,19.0,T,5
1645139244.1482184,3073,0,0,,42.33706380666666,-71.08684885166669,12.399,328083.61395850993,4689310.194206023,19.0,T,5
1645139244.2539115,3074,0,0,,42.33706339333333,-71.08684847833334,12.397,328083.6435889411,4689310.147553708,19.0,T,5
1645139244.55783,3075,0,0,,42.33706293833333,-71.0868483,12.396,328083.6570408867,4689310.0966688795,19.0,T,5
1645139244.7580698,3076,0,0,,42.33706244166666,-71.08684831833332,12.383,328083.6541770438,4689310.041554905,19.0,T,5
1645139244.9576852,3077,0,0,,42.33706207333333,-71.08684809833333,12.38,328083.6712978457,4689310.000209506,19.0,T,5
1645139245.1539502,3078,0,0,,42.33706184,-71.08684786166666,12.374,328083.6901596074,4689309.97382113,19.0,T,5
1645139245.3565013,3079,0,0,,42.33706178666666,-71.08684746,12.383,328083.7231052931,4689309.967086782,19.0,T,5
1645139245.5815182,3080,0,0,,42.33706160333333,-71.08684693666669,12.374,328083.76572013786,4689309.945670943,19.0,T,5
1645139245.7866483,3081,0,0,,42.337061565000006,-71.08684622833333,12.385,328083.82397122163,4689309.939982213,19.0,T,5
1645139245.983843,3082,0,0,,42.337061371666664,-71.08684585499999,12.417,328083.85420117376,4689309.917759218,19.0,T,5
1645139246.153643,3083,0,0,,42.337060883333336,-71.086845875,12.41,328083.8512227348,4689309.86357397,19.0,T,5
1645139246.340911,3084,0,0,,42.337060245,-71.08684589,12.367,328083.8482474522,4689309.792722255,19.0,T,5
1645139246.5429902,3085,0,0,,42.337059705,-71.08684573500001,12.353,328083.85954546655,4689309.732446001,19.0,T,5
1645139246.7570615,3086,0,0,,42.337059163333336,-71.08684506666665,12.345,328083.91312955023,4689309.6709468225,19.0,T,5
1645139246.9747624,3087,0,0,,42.337058989999996,-71.08684445833335,12.333,328083.96277431305,4689309.650469554,19.0,T,5
1645139247.058592,3088,0,0,,42.33705831833333,-71.08684357833334,12.268,328084.03344214545,4689309.574106922,19.0,T,5
1645139247.3504744,3089,0,0,,42.33705788833333,-71.08684277,12.264,328084.09886433155,4689309.524724424,19.0,T,5
1645139247.4537315,3090,0,0,,42.33705722999999,-71.08684191333333,12.269,328084.16764620045,4689309.449889532,19.0,T,5
1645139247.6605544,3091,0,0,,42.33705638833334,-71.086841135,12.265,328084.2294750336,4689309.354855253,19.0,T,5
1645139247.8616452,3092,0,0,,42.33705534833333,-71.08684043833334,12.239,328084.28403534123,4689309.237962683,19.0,T,5
1645139248.060109,3093,0,0,,42.337054528333326,-71.08683949833333,12.255,328084.3592420184,4689309.145007463,19.0,T,5
1645139248.3518643,3094,0,0,,42.33705336999999,-71.08683815333335,12.281,328084.46689235314,4689309.013664088,19.0,T,5
1645139248.5485046,3095,0,0,,42.33705235666666,-71.08683677166668,12.24,328084.57795858796,4689308.898347725,19.0,T,5
1645139248.7558446,3096,0,0,,42.33705153166667,-71.08683560666665,12.291,328084.6716881186,4689308.804382396,19.0,T,5
1645139248.9657803,3097,0,0,,42.33705014,-71.08683451666667,12.271,328084.75769461365,4689308.647644699,19.0,T,5
1645139249.1585877,3098,0,0,,42.337048460000005,-71.08683327166668,12.218,328084.8556849516,4689308.45857641,19.0,T,5
1645139249.3607247,3099,0,0,,42.33704674333334,-71.08683201833333,12.251,328084.95426191366,4689308.265419722,19.0,T,5
1645139249.5530307,3100,0,0,,42.33704520999999,-71.08683068666666,12.207,328085.0597919175,4689308.092462426,19.0,T,5
1645139249.7519512,3101,0,0,,42.33704395333333,-71.08682900833332,12.258,328085.1946357562,4689307.949525972,19.0,T,5
1645139249.860957,3102,0,0,,42.33704269500001,-71.08682744833332,12.282,328085.31972625025,4689307.806643694,19.0,T,5
1645139250.1584826,3103,0,0,,42.33704127166667,-71.08682603333334,12.292,328085.4324213837,4689307.645732585,19.0,T,5
1645139250.3581207,3104,0,0,,42.33703987333334,-71.086824605,12.287,328085.5462831097,4689307.487570581,19.0,T,5
1645139250.5657568,3105,0,0,,42.337038305,-71.0868234,12.285,328085.6412824143,4689307.310982905,19.0,T,5
1645139250.7287765,3106,0,0,,42.33703693833333,-71.086822045,12.247,328085.7491889247,4689307.156485508,19.0,T,5
1645139250.9632173,3107,0,0,,42.33703550833334,-71.08682049000001,12.218,328085.87339972064,4689306.994551078,19.0,T,5
1645139251.1531315,3108,0,0,,42.33703441666667,-71.08681881000001,12.267,328086.00883054116,4689306.869933261,19.0,T,5
1645139251.347947,3109,0,0,,42.33703309833333,-71.08681757833332,12.249,328086.10670804745,4689306.7210522685,19.0,T,5
1645139251.4715874,3110,0,0,,42.337032048333334,-71.08681662333333,12.239,328086.1825237762,4689306.602527004,19.0,T,5
1645139251.656974,3111,0,0,,42.337031021666654,-71.086815955,12.256,328086.2347862527,4689306.487172295,19.0,T,5
1645139251.8554626,3112,0,0,,42.337030458333324,-71.08681520500001,12.27,328086.2950393927,4689306.423102108,19.0,T,5
1645139252.0567598,3113,0,0,,42.337030048333325,-71.086814555,12.238,328086.3474719394,4689306.376260593,19.0,T,5
1645139252.259975,3114,0,0,,42.33703001000001,-71.08681403833333,12.259,328086.38993272104,4689306.370959393,19.0,T,5
1645139252.4594102,3115,0,0,,42.33702994166667,-71.08681369666665,12.281,328086.41789449257,4689306.362680728,19.0,T,5
1645139252.7486606,3116,0,0,,42.337029836666666,-71.08681355666667,12.29,328086.42914216756,4689306.350738232,19.0,T,5
1645139252.964817,3117,0,0,,42.33702971333334,-71.08681380166666,12.257,328086.40862191684,4689306.337538341,19.0,T,5
1645139253.1529493,3118,0,0,,42.337029755,-71.08681393,12.244,328086.3981628029,4689306.342424565,19.0,T,5
1645139253.3548563,3119,0,0,,42.33702966166667,-71.08681387666667,12.248,328086.4023022954,4689306.331952784,19.0,T,5
1645139253.5650399,3120,0,0,,42.33702963833333,-71.08681384666669,12.261,328086.4047102417,4689306.329301141,19.0,T,5
1645139253.7494183,3121,0,0,,42.33702965166667,-71.0868139,12.268,328086.4003527453,4689306.330889535,19.0,T,5
1645139253.950909,3122,0,0,,42.337029611666665,-71.08681386333333,12.271,328086.4032645015,4689306.326373709,19.0,T,5
1645139254.1598423,3123,0,0,,42.337029588333344,-71.08681384333333,12.269,328086.40484860295,4689306.323742287,19.0,T,5
1645139254.351912,3124,0,0,,42.337029564999995,-71.08681389,12.265,328086.4009404173,4689306.321245645,19.0,T,5
1645139254.5575535,3125,0,0,,42.33702955666666,-71.0868139,12.259,328086.4000938656,4689306.320340509,19.0,T,5
1645139254.664885,3126,0,0,,42.33702953833334,-71.08681390499999,12.248,328086.399631986,4689306.318314844,19.0,T,5
1645139254.8586006,3127,0,0,,42.337029655,-71.08681395166666,12.255,328086.39610530535,4689306.331364135,19.0,T,5
1645139255.057505,3128,0,0,,42.337029683333334,-71.08681381333335,12.277,328086.4075790135,4689306.334230657,19.0,T,5
1645139255.2638047,3129,0,0,,42.33702963333333,-71.08681386500001,12.264,328086.40318623744,4689306.328782996,19.0,T,5
1645139255.4584374,3130,0,0,,42.33702958000001,-71.08681387666667,12.266,328086.4020797496,4689306.322884325,19.0,T,5
1645139255.6645763,3131,0,0,,42.33702931666667,-71.08681396499999,12.233,328086.3940848714,4689306.2938217595,19.0,T,5
1645139255.8666306,3132,0,0,,42.33702877166667,-71.086813635,12.19,328086.41978655115,4689306.23263649,19.0,T,5
1645139256.061414,3133,0,0,,42.337028226666675,-71.08681306333332,12.193,328086.4653977797,4689306.170962627,19.0,T,5
1645139256.2579107,3134,0,0,,42.33702776166667,-71.08681238833333,12.187,328086.5197400603,4689306.11796324,19.0,T,5
1645139256.548269,3135,0,0,,42.33702706333333,-71.08681168166665,12.181,328086.57605533727,4689306.038989945,19.0,T,5
1645139256.659869,3136,0,0,,42.33702608499999,-71.08681063166667,12.216,328086.65989289037,4689305.928230652,19.0,T,5
1645139256.9521444,3137,0,0,,42.33702481166666,-71.08680999500001,12.17,328086.70887436497,4689305.785549524,19.0,T,5
1645139257.058835,3138,0,0,,42.33702357666666,-71.086809105,12.185,328086.77883100335,4689305.646612841,19.0,T,5
1645139257.2625961,3139,0,0,,42.33702237166667,-71.08680745833334,12.233,328086.9112068841,4689305.509477635,19.0,T,5
1645139257.4598556,3140,0,0,,42.33702095499999,-71.08680573,12.213,328087.0497340256,4689305.348673352,19.0,T,5
1645139257.7479405,3141,0,0,,42.33701955833333,-71.08680423000001,12.236,328087.1695045802,4689305.190551556,19.0,T,5
1645139257.952171,3142,0,0,,42.33701804000001,-71.08680259999998,12.234,328087.29965356295,4689305.01865678,19.0,T,5
1645139258.1506238,3143,0,0,,42.337016991666665,-71.08680011833334,12.419,328087.5012473193,4689304.897230057,19.0,T,5
1645139258.3503957,3144,0,0,,42.337016025000004,-71.08679747833334,12.656,328087.7161078219,4689304.78455169,19.0,T,5
1645139258.5623646,3145,0,0,,42.33701487,-71.08679429499999,12.921,328087.97521728405,4689304.6498618685,19.0,T,5
1645139258.7539473,3146,0,0,,42.33701370166666,-71.08679196166665,13.035,328088.16426371934,4689304.515409975,19.0,T,5
1645139258.9649415,3147,0,0,,42.33701264833333,-71.08679038,13.125,328088.2916979575,4689304.395247633,19.0,T,5
1645139259.1563735,3148,0,0,,42.33700927333333,-71.08678968833333,12.76,328088.33948354074,4689304.019081294,19.0,T,5
1645139259.3567085,3149,0,0,,42.337007015000005,-71.08678891833334,12.571,328088.39676550427,4689303.76675389,19.0,T,5
1645139259.5709977,3150,0,0,,42.33700527666666,-71.08678865333333,12.353,328088.413860376,4689303.573189489,19.0,T,5
1645139259.6617107,3151,0,0,,42.33700370666667,-71.08678689833334,12.303,328088.55416667287,4689303.395304834,19.0,T,5
1645139259.9578114,3152,0,0,,42.33700229833334,-71.08678486833335,12.33,328088.71756922256,4689303.234816051,19.0,T,5
1645139260.0630922,3153,0,0,,42.337000659999994,-71.08678321000001,12.335,328088.8497255037,4689303.049538937,19.0,T,5
1645139260.3411129,3154,0,0,,42.336999473333336,-71.08678011666665,12.543,328089.10133416834,4689302.911514778,19.0,T,5
1645139260.4606454,3155,0,0,,42.33699791666667,-71.08677876166668,12.529,328089.20872307685,4689302.735919391,19.0,T,5
1645139260.6520817,3156,0,0,,42.33699635333333,-71.08677694166667,12.525,328089.35440256307,4689302.55864362,19.0,T,5
1645139260.963748,3157,0,0,,42.33699503500001,-71.08677522666666,12.475,328089.4920993225,4689302.4087855145,19.0,T,5
1645139261.0589042,3158,0,0,,42.336993480000004,-71.08677360666667,12.439,328089.6213246527,4689302.232839449,19.0,T,5
1645139261.263128,3159,0,0,,42.33699178666667,-71.0867718,12.456,328089.76555145415,4689302.041155137,19.0,T,5
1645139261.4594817,3160,0,0,,42.336989996666674,-71.08677019666668,12.409,328089.8927633504,4689301.839147817,19.0,T,5
1645139261.6569796,3161,0,0,,42.33698846,-71.08676864000002,12.403,328090.01682098326,4689301.665365578,19.0,T,5
1645139261.8572402,3162,0,0,,42.33698682166667,-71.08676674833335,12.399,328090.168200355,4689301.479616759,19.0,T,5
1645139262.0559502,3163,0,0,,42.336985156666664,-71.08676505,12.339,328090.30357941973,4689301.291297679,19.0,T,5
1645139262.2582884,3164,0,0,,42.336983555,-71.08676351999999,12.347,328090.42526303255,4689301.110351607,19.0,T,5
1645139262.4559567,3165,0,0,,42.336981936666675,-71.08676203166668,12.353,328090.54346855026,4689300.92763907,19.0,T,5
1645139262.6603835,3166,0,0,,42.33698023499999,-71.08676026166665,12.347,328090.68465193675,4689300.735103554,19.0,T,5
1645139262.864251,3167,0,0,,42.336978365,-71.08675868666667,12.357,328090.80931166554,4689300.524270146,19.0,T,5
1645139263.0596006,3168,0,0,,42.336976613333334,-71.08675710833333,12.305,328090.93456847104,4689300.3265700145,19.0,T,5
1645139263.3499088,3169,0,0,,42.33697522666666,-71.08675543,12.27,328091.069058343,4689300.169198175,19.0,T,5
1645139263.454154,3170,0,0,,42.33697367833334,-71.08675390666667,12.316,328091.19033809844,4689299.994187855,19.0,T,5
1645139263.660176,3171,0,0,,42.336971901666665,-71.08675234166667,12.254,328091.3144283412,4689299.793738628,19.0,T,5
1645139263.8645937,3172,0,0,,42.336970169999994,-71.08675055,12.278,328091.4573150188,4689299.597828056,19.0,T,5
1645139264.0632162,3173,0,0,,42.33696859833333,-71.086748825,12.303,328091.59514540416,4689299.419819046,19.0,T,5
1645139264.3419297,3174,0,0,,42.336967099999995,-71.08674714166666,12.264,328091.72974294086,4689299.25003738,19.0,T,5
1645139264.5459023,3175,0,0,,42.336965836666664,-71.08674538833333,12.272,328091.8707477598,4689299.106209156,19.0,T,5
1645139264.741745,3176,0,0,,42.33696412833333,-71.08674390333333,12.257,328091.98843349185,4689298.913509573,19.0,T,5
1645139264.9578447,3177,0,0,,42.336962411666676,-71.08674233833335,12.186,328092.1126872775,4689298.719722903,19.0,T,5
1645139265.0610795,3178,0,0,,42.33696073166668,-71.08674098333333,12.208,328092.2197402583,4689298.5304323435,19.0,T,5
1645139265.3397663,3179,0,0,,42.33695917833333,-71.08673930333333,12.242,328092.35391334,4689298.354550101,19.0,T,5
1645139265.4691768,3180,0,0,,42.33695758833334,-71.08673763666667,12.199,328092.48688805837,4689298.174623266,19.0,T,5
1645139265.6638298,3181,0,0,,42.336956189999995,-71.08673613333333,12.207,328092.60692894005,4689298.01630976,19.0,T,5
1645139265.8586273,3182,0,0,,42.33695439666667,-71.08673461666667,12.186,328092.726991931,4689297.814107568,19.0,T,5
1645139266.0546095,3183,0,0,,42.33695290166667,-71.08673315333333,12.156,328092.84347403806,4689297.645140842,19.0,T,5
1645139266.2573173,3184,0,0,,42.336951041666666,-71.08673167666667,12.126,328092.9600600043,4689297.435616697,19.0,T,5
1645139266.5333374,3185,0,0,,42.336949383333334,-71.08672994499999,12.137,328093.0982035419,4689297.247970571,19.0,T,5
1645139266.7367568,3186,0,0,,42.33694795,-71.08672828166667,12.113,328093.23133058986,4689297.085447125,19.0,T,5
1645139266.9646313,3187,0,0,,42.33694846499999,-71.08672477166667,12.106,328093.5219033252,4689297.13553785,19.0,T,4
1645139267.1542802,3188,0,0,,42.33694721,-71.08672336,12.103,328093.63478291454,4689296.993325756,19.0,T,4
1645139267.253314,3189,0,0,,42.336945805000006,-71.086721785,12.108,328093.7607098967,4689296.834127102,19.0,T,4
1645139267.4473755,3190,0,0,,42.336944208333335,-71.08672017333335,12.148,328093.8891353678,4689296.653571204,19.0,T,4
1645139267.7533834,3191,0,0,,42.336942808333326,-71.08671831166666,12.149,328094.0386928632,4689296.494348222,19.0,T,4
1645139267.9594955,3192,0,0,,42.33694180833333,-71.08671698666667,12.071,328094.14512733906,4689296.380627151,19.0,T,4
1645139268.083561,3193,0,0,,42.33693907833334,-71.08671731499999,12.218,328094.1106387505,4689296.078145292,19.0,T,5
1645139268.340156,3194,0,0,,42.336939305,-71.08671608833335,12.255,328094.2123146608,4689296.10083498,19.0,T,5
1645139268.449047,3195,0,0,,42.336937965,-71.08671429500001,12.225,328094.3564060648,4689295.948412692,19.0,T,5
1645139268.653217,3196,0,0,,42.33693570666666,-71.08671201166666,12.209,328094.538363482,4689295.693025895,19.0,T,5
1645139268.9448137,3197,0,0,,42.336935113333325,-71.08671043833334,12.241,328094.66636491846,4689295.623960011,19.0,T,5
1645139269.1425185,3198,0,0,,42.33693489000001,-71.08670936666668,12.214,328094.75404503674,4689295.596994005,19.0,T,5
1645139269.2532542,3199,0,0,,42.336934576666664,-71.08670810666668,12.226,328094.85699565255,4689295.559653438,19.0,T,5
1645139269.4592395,3200,0,0,,42.336935110000006,-71.08670726666665,12.257,328094.9276518838,4689295.617177835,19.0,T,5
1645139269.6550174,3201,0,0,,42.33693530333333,-71.086706495,12.286,328094.99175204,4689295.637085977,19.0,T,5
1645139269.8571615,3202,0,0,,42.33693507,-71.08670560166667,12.262,328095.0647130137,4689295.60937008,19.0,T,5
1645139270.058944,3203,0,0,,42.33693593666667,-71.08670485500001,12.265,328095.1285883257,4689295.704097286,19.0,T,5
1645139270.258193,3204,0,0,,42.336936725,-71.08670409666667,12.248,328095.19321133854,4689295.790102589,19.0,T,5
1645139270.4570236,3205,0,0,,42.33693742833334,-71.08670293333334,12.261,328095.2909684367,4689295.865850523,19.0,T,5
1645139270.6508658,3206,0,0,,42.33693772833333,-71.08670133166667,12.238,328095.423738344,4689295.895925213,19.0,T,5
1645139270.8652573,3207,0,0,,42.33693867,-71.08669974,12.279,328095.5574328848,4689295.997272304,19.0,T,5
1645139271.05304,3208,0,0,,42.33693918166667,-71.08669816166666,12.283,328095.68885725306,4689296.0508981375,19.0,T,5
1645139271.2574384,3209,0,0,,42.33693995,-71.08669636833332,12.247,328095.83869366784,4689296.1325901905,19.0,T,5
1645139271.4533494,3210,0,0,,42.33694100666666,-71.08669459500001,12.255,328095.987668063,4689296.246339895,19.0,T,5
1645139271.65659,3211,0,0,,42.336941868333334,-71.086693355,12.264,328096.0921727314,4689296.339514552,19.0,T,5
1645139271.9437382,3212,0,0,,42.336942608333324,-71.08669138166667,12.236,328096.2567611317,4689296.417696517,19.0,T,5
1645139272.1448674,3213,0,0,,42.33694336833334,-71.08668939666667,12.183,328096.42236517475,4689296.49807575,19.0,T,5
1645139272.250867,3214,0,0,,42.33694521666666,-71.08668754833334,12.189,328096.5796755848,4689296.6995823765,19.0,T,5
1645139272.4533885,3215,0,0,,42.33694649333333,-71.08668563333335,12.326,328096.7409205627,4689296.837475015,19.0,T,5
1645139272.6533046,3216,0,0,,42.33694715333333,-71.08668331166668,12.199,328096.93398819945,4689296.906069403,19.0,T,5
1645139272.946749,3217,0,0,,42.336947730000006,-71.08668128666666,12.066,328097.1023880452,4689296.966010019,19.0,T,5
1645139273.172231,3218,0,0,,42.33694947666666,-71.08667950833332,12.072,328097.253654485,4689297.1563688675,19.0,T,5
1645139273.2524574,3219,0,0,,42.33695060499999,-71.08667775000002,12.056,328097.4015883525,4689297.2781069605,19.0,T,5
1645139273.453396,3220,0,0,,42.336951739999996,-71.08667533166665,12.068,328097.60391411476,4689297.399251062,19.0,T,5
1645139273.7591746,3221,0,0,,42.336952880000005,-71.08667353,12.081,328097.7554497507,4689297.522197055,19.0,T,5
1645139273.9813225,3222,0,0,,42.33695533833333,-71.08667206666668,12.078,328097.882704259,4689297.792217874,19.0,T,5
1645139274.1728764,3223,0,0,,42.33695645666667,-71.08666996833334,12.118,328098.05862156255,4689297.912158204,19.0,T,5
1645139274.2537956,3224,0,0,,42.33695838333333,-71.086668105,12.187,328098.21738110913,4689298.122332859,19.0,T,5
1645139274.4647937,3225,0,0,,42.336959071666655,-71.08666592,12.099,328098.3992666948,4689298.194349773,19.0,T,5
1645139274.661786,3226,0,0,,42.33696037666667,-71.08666353,12.175,328098.5997214088,4689298.334428386,19.0,T,5
1645139274.8590162,3227,0,0,,42.33696141833334,-71.086661365,12.177,328098.7809220763,4689298.445720712,19.0,T,5
1645139275.0689783,3228,0,0,,42.33696296833334,-71.08665904,12.144,328098.9766893741,4689298.613136116,19.0,T,5
1645139275.2591472,3229,0,0,,42.33696428166666,-71.08665517,11.945,328099.29909571615,4689298.751148111,19.0,T,4
1645139275.4602091,3230,0,0,,42.33696549,-71.08665319333332,11.922,328099.46523476567,4689298.881328249,19.0,T,4
1645139275.6669266,3231,0,0,,42.33696653333333,-71.08665297,12.146,328099.48647686513,4689298.996730954,19.0,T,5
1645139275.8635185,3232,0,0,,42.33696784833334,-71.08665089666667,12.212,328099.66087038413,4689299.138560194,19.0,T,5
1645139276.0551112,3233,0,0,,42.33696920166667,-71.086648865,12.189,328099.8319356619,4689299.284730294,19.0,T,5
1645139276.3514044,3234,0,0,,42.33697092166667,-71.08664677666668,12.259,328100.0086684866,4689299.471501373,19.0,T,5
1645139276.550812,3235,0,0,,42.33697228999999,-71.08664476666667,12.259,328100.17798962723,4689299.6193809165,19.0,T,5
1645139276.6735523,3236,0,0,,42.33697339166667,-71.08664247333333,12.227,328100.36992639233,4689299.737076386,19.0,T,5
1645139276.8577025,3237,0,0,,42.33697458,-71.08664031333332,12.251,328100.55111471226,4689299.864665075,19.0,T,5
1645139277.0509388,3238,0,0,,42.336975483333326,-71.086638465,12.28,328100.70584997826,4689299.96123676,19.0,T,5
1645139277.2562585,3239,0,0,,42.33697715833334,-71.08663636833333,12.277,328100.8831466851,4689300.142994109,19.0,T,5
1645139277.4536202,3240,0,0,,42.336978564999995,-71.08663447500001,12.248,328101.04296072654,4689300.295366149,19.0,T,5
1645139277.661493,3241,0,0,,42.336979905,-71.08663241833332,12.263,328101.2160492287,4689300.440005179,19.0,T,5
1645139277.8530574,3242,0,0,,42.336981076666675,-71.08663039833333,12.248,328101.3856582853,4689300.566026207,19.0,T,5
1645139278.0575004,3243,0,0,,42.33698215500001,-71.08662810833333,12.224,328101.577256809,4689300.681137457,19.0,T,5
1645139278.2571647,3244,0,0,,42.336983565000004,-71.08662613333333,12.285,328101.7438079652,4689300.833714559,19.0,T,5
1645139278.464101,3245,0,0,,42.33698489166666,-71.08662412833334,12.261,328101.91260358016,4689300.976977486,19.0,T,5
1645139278.7531364,3246,0,0,,42.336986456666665,-71.08662227333332,12.28,328102.0696909438,4689301.14700875,19.0,T,5
1645139278.8507876,3247,0,0,,42.336987500000006,-71.08662023499998,12.295,328102.240460666,4689301.258742299,19.0,T,5
1645139279.0597017,3248,0,0,,42.33698863833333,-71.08661810333334,12.241,328102.4191784449,4689301.380836195,19.0,T,5
1645139279.2517052,3249,0,0,,42.33699014000001,-71.08661598333333,12.244,328102.59792507807,4689301.543299074,19.0,T,5
1645139279.457219,3250,0,0,,42.33699121833333,-71.08661412333332,12.301,328102.75409826834,4689301.659279629,19.0,T,5
1645139279.650884,3251,0,0,,42.33699245833333,-71.08661215833332,12.244,328102.91936232126,4689301.7929997705,19.0,T,5
1645139279.8593419,3252,0,0,,42.336993865000004,-71.08661031666666,12.237,328103.07491975534,4689301.945476306,19.0,T,5
1645139280.053192,3253,0,0,,42.336995343333335,-71.08660829,12.272,328103.2459135683,4689302.105536889,19.0,T,5
1645139280.2557304,3254,0,0,,42.336996635,-71.08660608833334,12.265,328103.4308160168,4689302.244515796,19.0,T,5
1645139280.4647374,3255,0,0,,42.336997784999994,-71.086603815,12.253,328103.62123666273,4689302.367618827,19.0,T,5
1645139280.6598215,3256,0,0,,42.33699891166666,-71.08660190666667,12.285,328103.78152342676,4689302.488868744,19.0,T,5
1645139280.9765615,3257,0,0,,42.337000306666674,-71.086599865,12.251,328103.9535259145,4689302.639645492,19.0,T,5
1645139281.0603182,3258,0,0,,42.33700181999999,-71.08659805666667,12.24,328104.1066278035,4689302.80403395,19.0,T,5
1645139281.2574217,3259,0,0,,42.33700301166667,-71.08659608999999,12.288,328104.27189741586,4689302.932383708,19.0,T,5
1645139281.4519403,3260,0,0,,42.33700421333334,-71.08659372000001,12.244,328104.47042262624,4689303.061028534,19.0,T,5
1645139281.6534755,3261,0,0,,42.33700541666667,-71.08659150499999,12.228,328104.65618279926,4689303.190171775,19.0,T,5
1645139281.9594638,3262,0,0,,42.337006766666676,-71.08658927833334,12.261,328104.843303742,4689303.335577652,19.0,T,5
1645139282.0518875,3263,0,0,,42.337008113333326,-71.08658729,12.235,328105.01078065584,4689303.48109519,19.0,T,5
1645139282.2574348,3264,0,0,,42.33700956333334,-71.08658525000001,12.227,328105.1827956452,4689303.6379826665,19.0,T,5
1645139282.456181,3265,0,0,,42.33701064833334,-71.086583115,12.233,328105.3616426117,4689303.754147637,19.0,T,5
1645139282.6523404,3266,0,0,,42.33701206333333,-71.08658091000001,12.214,328105.54715563986,4689303.906815082,19.0,T,5
1645139282.862564,3267,0,0,,42.337013240000005,-71.08657855833334,12.208,328105.74410230294,4689304.032720947,19.0,T,5
1645139283.0564563,3268,0,0,,42.33701464666667,-71.08657654833333,12.255,328105.913527661,4689304.184857247,19.0,T,5
1645139283.3317335,3269,0,0,,42.33701608,-71.08657463666668,12.243,328106.07492454094,4689304.340153466,19.0,T,5
1645139283.535678,3270,0,0,,42.33701736500001,-71.086572705,12.247,328106.2375649373,4689304.478937977,19.0,T,5
1645139283.6635528,3271,0,0,,42.337018400000005,-71.08657063666665,12.222,328106.41078333807,4689304.589685624,19.0,T,5
1645139283.8596294,3272,0,0,,42.33701963499999,-71.08656858166667,12.189,328106.5834482159,4689304.722668701,19.0,T,5
1645139284.1380823,3273,0,0,,42.33702065666667,-71.08656619166668,12.182,328106.78313057206,4689304.8312855335,19.0,T,5
1645139284.3352427,3274,0,0,,42.337022011666676,-71.08656382666668,12.231,328106.981661554,4689304.976967033,19.0,T,5
1645139284.5390108,3275,0,0,,42.33702348333333,-71.08656174666666,12.207,328107.1570308745,4689305.136179609,19.0,T,5
1645139284.6608746,3276,0,0,,42.33702512500001,-71.08655957333335,12.245,328107.3405525894,4689305.31408072,19.0,T,5
1645139284.9416523,3277,0,0,,42.33702640500001,-71.08655734833333,12.27,328107.52734538476,4689305.451717066,19.0,T,5
1645139285.06596,3278,0,0,,42.337027645000006,-71.08655511166666,12.288,328107.7149903382,4689305.584888141,19.0,T,5
1645139285.2585542,3279,0,0,,42.33702842999999,-71.08655273166667,12.291,328107.91320395673,4689305.667245193,19.0,T,5
1645139285.543318,3280,0,0,,42.337029894999986,-71.08655057833333,12.309,328108.09459659236,4689305.825569266,19.0,T,5
1645139285.6534336,3281,0,0,,42.33703123166667,-71.08654821166668,12.234,328108.29321487044,4689305.969211656,19.0,T,5
1645139285.8601315,3282,0,0,,42.337032574999995,-71.08654612166666,12.254,328108.4690583115,4689306.114153613,19.0,T,5
1645139286.0567179,3283,0,0,,42.33703375166667,-71.08654393833335,12.276,328108.6521368264,4689306.240399842,19.0,T,5
1645139286.2609391,3284,0,0,,42.337034905,-71.08654143000001,12.295,328108.8619266711,4689306.363398101,19.0,T,5
1645139286.457926,3285,0,0,,42.33703609833333,-71.086538995,12.314,328109.06578397617,4689306.490986302,19.0,T,5
1645139286.66524,3286,0,0,,42.337037328333324,-71.08653698666667,12.334,328109.2345905343,4689306.623508565,19.0,T,5
1645139286.8646772,3287,0,0,,42.337038894999985,-71.08653488833335,12.305,328109.4117289843,4689306.79323316,19.0,T,5
1645139287.0570037,3288,0,0,,42.33704008666666,-71.08653317166666,12.318,328109.55640232237,4689306.922088412,19.0,T,5
1645139287.2616982,3289,0,0,,42.337041805000005,-71.08653119499999,12.325,328109.72393057833,4689307.108900389,19.0,T,5
1645139287.4601593,3290,0,0,,42.337042975,-71.08652870333333,12.293,328109.9323927129,4689307.233783074,19.0,T,5
1645139287.6506543,3291,0,0,,42.33704406166667,-71.08652623500001,12.318,328110.1387054847,4689307.349459403,19.0,T,5
1645139287.8573244,3292,0,0,,42.33704576333333,-71.08652430166667,12.4,328110.3026183153,4689307.534508284,19.0,T,5
1645139288.0561345,3293,0,0,,42.337048221666656,-71.08652285333334,12.383,328110.4286364122,4689307.804559639,19.0,T,5
1645139288.3813303,3294,0,0,,42.33704977000001,-71.08652089333334,12.364,328110.5943283572,4689307.972528126,19.0,T,5
1645139288.4638412,3295,0,0,,42.33705011,-71.08651893,12.339,328110.75700260606,4689308.006313691,19.0,T,5
1645139288.6568015,3296,0,0,,42.33705128,-71.086516495,12.352,328110.9607962528,4689308.131310956,19.0,T,5
1645139288.8663685,3297,0,0,,42.337051955,-71.08651409333335,12.367,328111.1604950405,4689308.201409643,19.0,T,5
1645139289.1721766,3298,0,0,,42.337053348333335,-71.08651226166667,12.357,328111.3151919852,4689308.352426,19.0,T,5
1645139289.2565708,3299,0,0,,42.33705435333333,-71.086510065,12.322,328111.49890111765,4689308.459583075,19.0,T,5
1645139289.5830925,3300,0,0,,42.33705569166667,-71.08650828166665,12.363,328111.64946628537,4689308.604589816,19.0,T,5
1645139289.652484,3301,0,0,,42.33705698166667,-71.08650629333334,12.368,328111.81678853545,4689308.74381511,19.0,T,5
1645139289.8596628,3302,0,0,,42.33705861666667,-71.08650417000001,12.336,328111.9961726615,4689308.921077127,19.0,T,5
1645139290.1521463,3303,0,0,,42.33705986166666,-71.08650216166667,12.371,328112.1650199775,4689309.055265093,19.0,T,5
1645139290.2555866,3304,0,0,,42.33706065666667,-71.08649993333333,12.36,328112.35076574,4689309.139039284,19.0,T,5
1645139290.5606475,3305,0,0,,42.33706222333334,-71.08649776833333,12.337,328112.53339633765,4689309.30862919,19.0,T,5
1645139290.6587822,3306,0,0,,42.33706365666667,-71.08649578500001,12.368,328112.7006971643,4689309.463780684,19.0,T,5
1645139290.9555345,3307,0,0,,42.33706488,-71.08649374000001,12.411,328112.87250617414,4689309.59548863,19.0,T,5
1645139291.1910567,3308,0,0,,42.337066501666676,-71.08649155166665,12.384,328113.05720890476,4689309.771138715,19.0,T,5
1645139291.2617154,3309,0,0,,42.337067270000006,-71.086489425,12.34,328113.2345062451,4689309.85215731,19.0,T,5
1645139291.5714118,3310,0,0,,42.33706827833333,-71.08648724666666,12.35,328113.41671401204,4689309.959721631,19.0,T,5
1645139291.7771711,3311,0,0,,42.33706979666667,-71.08648518666668,12.351,328113.5905625223,4689310.124156771,19.0,T,5
1645139291.8568463,3312,0,0,,42.33707117499999,-71.08648341500002,12.386,328113.7402754449,4689310.273628831,19.0,T,5
1645139292.1557262,3313,0,0,,42.33707256666666,-71.08648134,12.42,328113.9150145905,4689310.423968289,19.0,T,5
1645139292.3557973,3314,0,0,,42.33707393,-71.086478785,12.381,328114.12922098034,4689310.570191262,19.0,T,5
1645139292.575051,3315,0,0,,42.337074904999994,-71.08647665833334,12.408,328114.3070813758,4689310.6741586365,19.0,T,5
1645139292.7762742,3316,0,0,,42.33707600166667,-71.08647479166666,12.393,328114.46385334723,4689310.792161746,19.0,T,5
1645139292.954083,3317,0,0,,42.337077425000004,-71.08647268833333,12.39,328114.6410129616,4689310.94596029,19.0,T,5
1645139293.161213,3318,0,0,,42.33707854666666,-71.08647048833335,12.385,328114.8253144555,4689311.066065651,19.0,T,5
1645139293.3703368,3319,0,0,,42.337080016666675,-71.08646857833334,12.437,328114.9866735804,4689311.225436992,19.0,T,5
1645139293.5840852,3320,0,0,,42.33708108833333,-71.08646660833332,12.376,328115.15189045307,4689311.340455172,19.0,T,5
1645139293.7831876,3321,0,0,,42.337081749999996,-71.08646456166666,12.329,328115.32230636454,4689311.409791015,19.0,T,5
1645139294.0151365,3322,0,0,,42.33708301833334,-71.08646239000001,12.378,328115.5046732235,4689311.546239883,19.0,T,5
1645139294.0765522,3323,0,0,,42.33708463,-71.08646023333334,12.367,328115.68673975347,4689311.72084362,19.0,T,5
1645139294.367698,3324,0,0,,42.33708592666667,-71.08645814,12.357,328115.8627303608,4689311.860597041,19.0,T,5
1645139294.5850518,3325,0,0,,42.337087125,-71.08645622833332,12.358,328116.02348657174,4689311.989798524,19.0,T,5
1645139294.764395,3326,0,0,,42.337088455,-71.08645405,12.328,328116.2065706465,4689312.133081546,19.0,T,5
1645139294.9948204,3327,0,0,,42.337089838333334,-71.08645205333333,12.38,328116.3748335512,4689312.2826540535,19.0,T,5
1645139295.1988823,3328,0,0,,42.33709119499999,-71.08645000166666,12.416,328116.5475549281,4689312.429154259,19.0,T,5
1645139295.361883,3329,0,0,,42.337092858333335,-71.08644797833334,12.418,328116.71877761255,4689312.6097647315,19.0,T,5
1645139295.5926263,3330,0,0,,42.337094330000006,-71.08644610166667,12.424,328116.8773950565,4689312.769388563,19.0,T,5
1645139295.793486,3331,0,0,,42.337095671666674,-71.08644404500001,12.441,328117.05048746255,4689312.914213037,19.0,T,5
1645139295.9947152,3332,0,0,,42.33709723666666,-71.08644197833334,12.415,328117.22501219227,4689313.08381676,19.0,T,5
1645139296.1852226,3333,0,0,,42.33709860333333,-71.08643997166668,12.453,328117.39405348536,4689313.231518373,19.0,T,5
1645139296.3959894,3334,0,0,,42.337099845,-71.08643801833334,12.459,328117.5583603757,4689313.365447501,19.0,T,5
1645139296.5926135,3335,0,0,,42.33710077166667,-71.08643559166667,12.437,328117.7608042334,4689313.463441495,19.0,T,5
1645139296.7896569,3336,0,0,,42.33710194499999,-71.08643337333332,12.43,328117.9467567569,4689313.5892470665,19.0,T,5
1645139297.0012395,3337,0,0,,42.33710392,-71.08643159333332,12.47,328118.0987817015,4689313.804957648,19.0,T,5
1645139297.1666758,3338,0,0,,42.337105418333344,-71.08642941000001,12.506,328118.2827362394,4689313.966922745,19.0,T,5
1645139297.384982,3339,0,0,,42.337107066666675,-71.08642746499999,12.53,328118.4474645455,4689314.146025965,19.0,T,5
1645139297.5615404,3340,0,0,,42.3371084,-71.086425455,12.521,328118.6166895845,4689314.290019453,19.0,T,5
1645139297.7847583,3341,0,0,,42.337109340000005,-71.08642311,12.476,328118.81244167726,4689314.389659121,19.0,T,5
1645139297.9560297,3342,0,0,,42.33711094833334,-71.08642113666667,12.556,328118.9793951974,4689314.564263386,19.0,T,5
1645139298.1710303,3343,0,0,,42.33711192166667,-71.08641868666668,12.56,328119.18388843955,4689314.6673922315,19.0,T,5
1645139298.2615013,3344,0,0,,42.337112723333334,-71.08641633666666,12.48,328119.3796755476,4689314.751660947,19.0,T,5
1645139298.4598763,3345,0,0,,42.33711378333334,-71.08641420333333,12.517,328119.55831656663,4689314.865053576,19.0,T,5
1645139298.7676494,3346,0,0,,42.337115226666675,-71.08641200666666,12.516,328119.7432196507,4689315.02088443,19.0,T,5
1645139298.9749372,3347,0,0,,42.33711590166666,-71.08640955499999,12.43,328119.94703736156,4689315.090882287,19.0,T,5
1645139299.167075,3348,0,0,,42.337117338333336,-71.08640744833333,12.479,328120.1245076874,4689315.246154791,19.0,T,5
1645139299.3876283,3349,0,0,,42.33711914666666,-71.08640536333334,12.512,328120.30120562867,4689315.442741837,19.0,T,5
1645139299.5784163,3350,0,0,,42.33712027833334,-71.08640295333333,12.466,328120.50283483975,4689315.563533282,19.0,T,5
1645139299.7861762,3351,0,0,,42.33712095166667,-71.08640064000001,12.498,328120.69525150186,4689315.633625716,19.0,T,5
1645139299.9752133,3352,0,0,,42.337122076666674,-71.08639862166667,12.489,328120.864595387,4689315.754468587,19.0,T,5
1645139300.0557425,3353,0,0,,42.33712316500001,-71.086396275,12.455,328121.0608888514,4689315.870576231,19.0,T,5
1645139300.2596881,3354,0,0,,42.33712468666666,-71.08639421999999,12.476,328121.23433419864,4689316.035391795,19.0,T,5
1645139300.4646223,3355,0,0,,42.33712599,-71.086391785,12.491,328121.43849068746,4689316.175195004,19.0,T,5
1645139300.6597028,3356,0,0,,42.33712703166666,-71.08638926833335,12.466,328121.6486623012,4689316.285777055,19.0,T,5
1645139300.988613,3357,0,0,,42.33712785166667,-71.08638709833335,12.512,328121.82967011945,4689316.3724454595,19.0,T,5
1645139301.1842146,3358,0,0,,42.33713005833333,-71.08638506833333,12.545,328122.00292211183,4689316.613375594,19.0,T,5
1645139301.3840265,3359,0,0,,42.33713146,-71.08638317666669,12.473,328122.16258439276,4689316.7651962545,19.0,T,5
1645139301.46741,3360,0,0,,42.33713234666667,-71.08638101666666,12.448,328122.3429499852,4689316.859287708,19.0,T,5
1645139301.7597528,3361,0,0,,42.33713391166666,-71.08637865833333,12.46,328122.5415032113,4689317.028301999,19.0,T,5
1645139301.9578946,3362,0,0,,42.337135685,-71.08637644000001,12.502,328122.729090243,4689317.220733111,19.0,T,5
1645139302.1833556,3363,0,0,,42.33713682,-71.08637456,12.548,328122.8870648203,4689317.342966072,19.0,T,5
1645139302.3560104,3364,0,0,,42.33713792166667,-71.08637244500001,12.515,328123.0643088565,4689317.461022612,19.0,T,5
1645139302.5531752,3365,0,0,,42.337139228333335,-71.08637048,12.507,328123.22975377983,4689317.60214604,19.0,T,5
1645139302.7576518,3366,0,0,,42.33714020166668,-71.08636823833332,12.525,328123.4170834994,4689317.705696115,19.0,T,5
1645139302.9721377,3367,0,0,,42.33714154166667,-71.08636588166667,12.508,328123.61488636327,4689317.849729274,19.0,T,5
1645139303.1664076,3368,0,0,,42.33714289500001,-71.08636366,12.5,328123.8016036807,4689317.995515884,19.0,T,5
1645139303.360916,3369,0,0,,42.337143606666665,-71.08636134499999,12.493,328123.9942619867,4689318.069861657,19.0,T,5
1645139303.5573783,3370,0,0,,42.33714527833334,-71.08635921833334,12.501,328124.1740200785,4689318.251188788,19.0,T,5
1645139303.7586699,3371,0,0,,42.337146688333334,-71.08635728666665,12.495,328124.33700035093,4689318.403853995,19.0,T,5
1645139303.8699636,3372,0,0,,42.33714826833334,-71.08635517666666,12.536,328124.5151356141,4689318.575035938,19.0,T,5
1645139304.1838424,3373,0,0,,42.337147036666664,-71.08635201166666,12.348,328124.7725259257,4689318.431871291,19.0,T,5
1645139304.2633145,3374,0,0,,42.33714949833334,-71.08635020833334,12.429,328124.9277987542,4689318.701575464,19.0,T,5
1645139304.5544913,3375,0,0,,42.33715253666666,-71.08634872333334,12.6,328125.0584170416,4689319.035957517,19.0,T,5
1645139304.751033,3376,0,0,,42.337153758333336,-71.086346495,12.584,328125.245324807,4689319.1671101125,19.0,T,5
1645139304.9829626,3377,0,0,,42.337154255,-71.08634424,12.527,328125.4324542573,4689319.217703097,19.0,T,5
1645139305.1726696,3378,0,0,,42.337155634999995,-71.08634212,12.588,328125.6108684285,4689319.366656381,19.0,T,5
1645139305.3681362,3379,0,0,,42.33715711999999,-71.0863396,12.604,328125.8225223246,4689319.526460595,19.0,T,5
1645139305.460388,3380,0,0,,42.33715827333334,-71.08633749166667,12.578,328125.9993577936,4689319.65026787,19.0,T,5
1645139305.6554337,3381,0,0,,42.33715908666667,-71.08633531333334,12.57,328126.1810338404,4689319.736179255,19.0,T,5
1645139305.964041,3382,0,0,,42.33716074333333,-71.08633302833334,12.597,328126.3737951279,4689319.915520762,19.0,T,5
1645139306.1586347,3383,0,0,,42.337162465000006,-71.08633121166665,12.606,328126.5281502458,4689320.103026672,19.0,T,5
1645139306.3708396,3384,0,0,,42.337163438333334,-71.086328925,12.592,328126.7191871322,4689320.206485875,19.0,T,5
1645139306.5627842,3385,0,0,,42.33716443500001,-71.08632623,12.537,328126.9439277822,4689320.31171071,19.0,T,5
1645139306.7596955,3386,0,0,,42.337165559999995,-71.08632389666666,12.556,328127.1392224543,4689320.431917019,19.0,T,5
1645139306.9894066,3387,0,0,,42.33716684833333,-71.08632181333336,12.551,328127.3143660666,4689320.570765577,19.0,T,5
1645139307.061385,3388,0,0,,42.33716878833334,-71.08631978166666,12.528,328127.48702857,4689320.782081176,19.0,T,5
1645139307.3610346,3389,0,0,,42.33717022000001,-71.08631754833334,12.574,328127.6749202877,4689320.936542622,19.0,T,5
1645139307.5595725,3390,0,0,,42.33717080500001,-71.08631515666667,12.498,328127.8735494928,4689320.996668169,19.0,T,5
1645139307.7678964,3391,0,0,,42.33717186166667,-71.08631255833333,12.489,328128.0904897614,4689321.108750972,19.0,T,5
1645139307.9711404,3392,0,0,,42.33717268833334,-71.08631058333333,12.522,328128.25545062637,4689321.196553967,19.0,T,5
1645139308.15972,3393,0,0,,42.33717387000001,-71.08630823499999,12.523,328128.45213539567,4689321.323022397,19.0,T,5
1645139308.3717537,3394,0,0,,42.33717638,-71.08630627333335,12.549,328128.6205838557,4689321.597773656,19.0,T,5
1645139308.5592656,3395,0,0,,42.337178859999995,-71.08630465166665,12.65,328128.7609399683,4689321.869880881,19.0,T,5
1645139308.763313,3396,0,0,,42.337180111666676,-71.086302285,12.599,328128.9593257925,4689322.0040852325,19.0,T,5
1645139308.9567196,3397,0,0,,42.337181439999995,-71.08630014666667,12.53,328129.1391094332,4689322.147264358,19.0,T,5
1645139309.0683827,3398,0,0,,42.33718256833334,-71.08629801666667,12.609,328129.3176616555,4689322.268251861,19.0,T,5
1645139309.2579958,3399,0,0,,42.33718436000001,-71.08629552833334,12.672,328129.52754202636,4689322.462173181,19.0,T,5
1645139309.567425,3400,0,0,,42.33718581166666,-71.08629368333334,12.597,328129.6834956396,4689322.619640446,19.0,T,5
1645139309.7560387,3401,0,0,,42.33718734166667,-71.08629149833335,12.651,328129.8676732568,4689322.785118808,19.0,T,5
1645139309.9593816,3402,0,0,,42.337188514999994,-71.08628874,12.61,328130.09811274224,4689322.9098332105,19.0,T,5
1645139310.1596563,3403,0,0,,42.337189374999994,-71.08628679499999,12.547,328130.2606928288,4689323.001398302,19.0,T,5
1645139310.3757503,3404,0,0,,42.33719139666667,-71.08628451333334,12.688,328130.4541737017,4689323.221277116,19.0,T,5
1645139310.559929,3405,0,0,,42.33719198166667,-71.08628209666668,12.596,328130.65486241644,4689323.281352209,19.0,T,5
1645139310.756903,3406,0,0,,42.337192855,-71.08627976833334,12.49,328130.84905939084,4689323.373623066,19.0,T,5
1645139310.9671454,3407,0,0,,42.337193641666666,-71.08627731666667,12.487,328131.05318095733,4689323.456020968,19.0,T,5
1645139311.1640823,3408,0,0,,42.337195675000004,-71.08627486166667,12.533,328131.2609734928,4689323.676844951,19.0,T,5
1645139311.3599248,3409,0,0,,42.337196955,-71.08627229333332,12.586,328131.47605053615,4689323.813787953,19.0,T,5
1645139311.5546322,3410,0,0,,42.337199125000005,-71.08627108333333,12.598,328131.5816471535,4689324.052304177,19.0,T,5
1645139311.764672,3411,0,0,,42.337201545000006,-71.08626853333332,12.693,328131.7983195586,4689324.315872536,19.0,T,5
1645139311.960096,3412,0,0,,42.33720265499999,-71.08626648166668,12.656,328131.9703683119,4689324.434982655,19.0,T,5
1645139312.059637,3413,0,0,,42.33720394499999,-71.08626421,12.678,328132.161031945,4689324.573635733,19.0,T,5
1645139312.250857,3414,0,0,,42.33720559666667,-71.08626210166668,12.646,328132.33922479965,4689324.752779273,19.0,T,5
1645139312.559691,3415,0,0,,42.337206880000004,-71.08625988000001,12.702,328132.5257510495,4689324.89079314,19.0,T,5
1645139312.652034,3416,0,0,,42.33720822333333,-71.08625779166667,12.69,328132.7014562032,4689325.035739048,19.0,T,5
1645139312.8609042,3417,0,0,,42.337209258333324,-71.08625566500001,12.66,328132.87947940594,4689325.146369421,19.0,T,5
1645139313.162325,3418,0,0,,42.33721115166666,-71.08625357999999,12.711,328133.05640831497,4689325.352395376,19.0,T,5
1645139313.36522,3419,0,0,,42.33721240333333,-71.086251245,12.703,328133.2521851271,4689325.486663849,19.0,T,5
1645139313.5650172,3420,0,0,,42.33721361999999,-71.08624881833332,12.66,328133.45541845774,4689325.616860565,19.0,T,5
1645139313.759144,3421,0,0,,42.33721472833333,-71.086246895,12.675,328133.6168899818,4689325.736045043,19.0,T,5
1645139313.8506238,3422,0,0,,42.33721615666666,-71.08624453333333,12.684,328133.81534497655,4689325.889877116,19.0,T,5
1645139314.055484,3423,0,0,,42.33721755,-71.08624235499998,12.658,328133.99860086455,4689326.040193267,19.0,T,5
1645139314.3691785,3424,0,0,,42.337219008333335,-71.08624062166668,12.666,328134.14537290344,4689326.198626613,19.0,T,5
1645139314.450012,3425,0,0,,42.33722034666667,-71.08623800333332,12.658,328134.36472793657,4689326.34194611,19.0,T,5
1645139314.6553056,3426,0,0,,42.33722167666666,-71.08623578999999,12.637,328134.55069470406,4689326.485158849,19.0,T,5
1645139314.853736,3427,0,0,,42.33722274,-71.08623379166667,12.646,328134.7182224017,4689326.599194855,19.0,T,5
1645139315.057517,3428,0,0,,42.337224309999996,-71.08623158000002,12.619,328134.90470567835,4689326.769061139,19.0,T,5
1645139315.2545848,3429,0,0,,42.337225466666666,-71.086229505,12.585,328135.07880374737,4689326.893306147,19.0,T,5
1645139315.4529936,3430,0,0,,42.33722612333333,-71.08622726333333,12.528,328135.2652703448,4689326.961693114,19.0,T,5
1645139315.6593614,3431,0,0,,42.337228005,-71.08622509333333,12.556,328135.4491699993,4689327.166251831,19.0,T,5
1645139315.8511696,3432,0,0,,42.33722910333333,-71.08622286,12.57,328135.63615327654,4689327.283699359,19.0,T,5
1645139316.0582829,3433,0,0,,42.33723128166667,-71.08622096500001,12.656,328135.7982054954,4689327.52175648,19.0,T,5
1645139316.2513638,3434,0,0,,42.337233046666675,-71.086219095,12.653,328135.95707206725,4689327.713966624,19.0,T,5
1645139316.4561906,3435,0,0,,42.33723483666666,-71.08621693833334,12.685,328136.13962350396,4689327.908373422,19.0,T,5
1645139316.6678157,3436,0,0,,42.33723571000001,-71.08621438166666,12.652,328136.35263130174,4689328.000182924,19.0,T,5
1645139316.8658056,3437,0,0,,42.33723722333335,-71.08621215999999,12.636,328136.53978396865,4689328.163736638,19.0,T,5
1645139317.0615506,3438,0,0,,42.337238346666666,-71.08620985166668,12.576,328136.7330141099,4689328.2838086635,19.0,T,5
1645139317.2656085,3439,0,0,,42.33723935,-71.08620744000001,12.571,328136.934430353,4689328.390346758,19.0,T,5
1645139317.5746725,3440,0,0,,42.33724125166666,-71.08620539166667,12.559,328137.1083610154,4689328.597372271,19.0,T,5
1645139317.764138,3441,0,0,,42.337242615,-71.08620301666667,12.627,328137.3077372323,4689328.743959737,19.0,T,5
1645139317.857074,3442,0,0,,42.33724363833334,-71.08620059666666,12.612,328137.509894472,4689328.852701852,19.0,T,5
1645139318.0602834,3443,0,0,,42.337245114999995,-71.08619817666666,12.559,328137.7132867035,4689329.011783175,19.0,T,5
1645139318.2559612,3444,0,0,,42.337247188333336,-71.086196255,12.558,328137.877249675,4689329.238126995,19.0,T,5
1645139318.4608004,3445,0,0,,42.337248564999996,-71.08619375666666,12.546,328138.0868228802,4689329.385945767,19.0,T,5
1645139318.6611226,3446,0,0,,42.337249673333325,-71.08619165166667,12.485,328138.2632606755,4689329.504763171,19.0,T,5
1645139318.864171,3447,0,0,,42.33725003666666,-71.08618891833333,12.442,328138.48943354643,4689329.5395840565,19.0,T,5
1645139319.0614884,3448,0,0,,42.33725139166666,-71.08618656166665,12.397,328138.6872766273,4689329.685283261,19.0,T,5
1645139319.36676,3449,0,0,,42.33725281166667,-71.08618447833335,12.42,328138.86277847044,4689329.838752674,19.0,T,5
1645139319.4630604,3450,0,0,,42.33725432666666,-71.08618229166667,12.473,328139.047052129,4689330.00256226,19.0,T,5
1645139319.655416,3451,0,0,,42.337255615000004,-71.08617987166669,12.421,328139.249931226,4689330.140730651,19.0,T,5
1645139319.8539944,3452,0,0,,42.33725725166667,-71.08617775,12.429,328139.42918135296,4689330.318181776,19.0,T,5
1645139320.059079,3453,0,0,,42.337258505,-71.08617527666668,12.427,328139.6363589017,4689330.452355899,19.0,T,5
1645139320.3827903,3454,0,0,,42.337259666666654,-71.086173165,12.381,328139.8134911625,4689330.577082123,19.0,T,5
1645139320.456414,3455,0,0,,42.33726093,-71.08617046833334,12.399,328140.03909503866,4689330.711915295,19.0,T,5
1645139320.661125,3456,0,0,,42.33726256833333,-71.086167945,12.396,328140.25144058885,4689330.8887396855,19.0,T,5
1645139320.8530643,3457,0,0,,42.33726417166667,-71.08616570833333,12.384,328140.44007402565,4689331.062256994,19.0,T,5
1645139321.057854,3458,0,0,,42.337265795,-71.08616355666665,12.468,328140.62175929785,4689331.23816695,19.0,T,5
1645139321.2576983,3459,0,0,,42.33726787166666,-71.08616143999998,12.452,328140.80179609143,4689331.464486853,19.0,T,5
1645139321.570357,3460,0,0,,42.33726835666666,-71.08615903833334,12.442,328141.0009762922,4689331.513488317,19.0,T,5
1645139321.654885,3461,0,0,,42.33726902666667,-71.08615623666667,12.462,328141.23361407523,4689331.582224168,19.0,T,5
1645139321.8571138,3462,0,0,,42.33727016666667,-71.08615390166665,12.437,328141.4290863561,4689331.70409313,19.0,T,5
1645139322.1471632,3463,0,0,,42.33727142999999,-71.08615195666667,12.395,328141.59276484116,4689331.840445559,19.0,T,5
1645139322.2649195,3464,0,0,,42.337273593333336,-71.08614974166666,12.431,328141.7811387823,4689332.076190415,19.0,T,5
1645139322.4591627,3465,0,0,,42.337275023333326,-71.08614740166666,12.412,328141.97781296977,4689332.23025157,19.0,T,5
1645139322.6538188,3466,0,0,,42.33727585166666,-71.08614487166665,12.408,328142.1885010619,4689332.317118232,19.0,T,5
1645139322.9611201,3467,0,0,,42.33727730333334,-71.08614278166665,12.47,328142.36463825754,4689332.474090597,19.0,T,5
1645139323.0510125,3468,0,0,,42.33727907666666,-71.08614068499999,12.459,328142.5422009471,4689332.666768116,19.0,T,5
1645139323.2529995,3469,0,0,,42.33728033333334,-71.08613851333332,12.445,328142.7245349386,4689332.8019221695,19.0,T,5
1645139323.4571204,3470,0,0,,42.33728170166667,-71.08613645499999,12.462,328142.8978362682,4689332.949705019,19.0,T,5
1645139323.65167,3471,0,0,,42.337282818333335,-71.08613402333334,12.422,328143.1012086966,4689333.068787662,19.0,T,5
1645139323.861077,3472,0,0,,42.33728372666667,-71.08613138000001,12.416,328143.3214515343,4689333.164308688,19.0,T,5
1645139324.0486517,3473,0,0,,42.337285521666665,-71.08612912,12.471,328143.512529262,4689333.359062034,19.0,T,5
1645139324.2526696,3474,0,0,,42.337287204999996,-71.08612706833333,12.469,328143.6861394462,4689333.541836717,19.0,T,5
1645139324.457491,3475,0,0,,42.337287915,-71.08612500166667,12.403,328143.8583338612,4689333.616499859,19.0,T,5
1645139324.650238,3476,0,0,,42.337289103333326,-71.086122895,12.383,328144.0351266913,4689333.744197421,19.0,T,5
1645139324.9111133,3477,0,0,,42.337289875,-71.08612045666666,12.337,328144.23810847156,4689333.82495701,19.0,T,5
1645139325.0521195,3478,0,0,,42.33729086166666,-71.086118175,12.337,328144.4287691164,4689333.929907347,19.0,T,5
1645139325.2516742,3479,0,0,,42.33729196333334,-71.08611583166666,12.362,328144.62482338026,4689334.047502932,19.0,T,5
1645139325.4566567,3480,0,0,,42.33729318166667,-71.08611365666667,12.276,328144.8073274795,4689334.178393677,19.0,T,5
1645139325.7317338,3481,0,0,,42.33729474333333,-71.08611140833334,12.318,328144.9968083566,4689334.347260756,19.0,T,5
1645139325.9369185,3482,0,0,,42.33729597999999,-71.08610923333333,12.328,328145.1793623857,4689334.480187287,19.0,T,5
1645139326.0537667,3483,0,0,,42.337297420000006,-71.08610708166667,12.233,328145.360548023,4689334.635739596,19.0,T,5
1645139326.2501547,3484,0,0,,42.337298915000005,-71.08610481166667,12.24,328145.55163225037,4689334.797160078,19.0,T,5
1645139326.5352883,3485,0,0,,42.33730082833335,-71.086102595,12.244,328145.7394622538,4689335.005141077,19.0,T,5
1645139326.713942,3486,0,0,,42.337302305,-71.08610024166667,12.245,328145.9373618514,4689335.164357367,19.0,T,5
1645139326.8594093,3487,0,0,,42.33730349499999,-71.08609767333336,12.228,328146.1521930781,4689335.291306991,19.0,T,5
1645139327.0601025,3488,0,0,,42.33730494500001,-71.08609521166666,12.201,328146.35894494934,4689335.447343215,19.0,T,5
1645139327.32746,3489,0,0,,42.337306488333326,-71.08609282666666,12.267,328146.55963495444,4689335.613898346,19.0,T,5
1645139327.4502523,3490,0,0,,42.33730798500001,-71.08609071,12.224,328146.7380914602,4689335.775813827,19.0,T,5
1645139327.7353218,3491,0,0,,42.33730927500001,-71.08608827666667,12.178,328146.94207322766,4689335.914140553,19.0,T,5
1645139327.9346082,3492,0,0,,42.33731054166667,-71.08608588666665,12.201,328147.142421455,4689336.049963876,19.0,T,5
1645139328.1069179,3493,0,0,,42.33731213666666,-71.08608342666666,12.195,328147.3494309692,4689336.222104638,19.0,T,5
1645139328.3362727,3494,0,0,,42.337313473333346,-71.0860809,12.203,328147.5612290078,4689336.365424729,19.0,T,5
1645139328.5355291,3495,0,0,,42.337314985,-71.08607869833334,12.269,328147.7467289668,4689336.528834078,19.0,T,5
1645139328.6568666,3496,0,0,,42.33731664166666,-71.08607653333333,12.227,328147.9296031698,4689336.70841868,19.0,T,5
1645139328.937445,3497,0,0,,42.33731793666668,-71.08607448500001,12.171,328148.1018806866,4689336.848078758,19.0,T,5
1645139329.115527,3498,0,0,,42.337319285,-71.08607188333333,12.182,328148.31988926814,4689336.992542783,19.0,T,5
1645139329.33764,3499,0,0,,42.33732080333332,-71.08606945,12.135,328148.5244929715,4689337.156224223,19.0,T,5
1645139329.5122504,3500,0,0,,42.33732220333333,-71.08606703333332,12.177,328148.72740125103,4689337.306799346,19.0,T,5
1645139329.7144163,3501,0,0,,42.33732365000001,-71.08606446333334,12.193,328148.9430688462,4689337.462246557,19.0,T,5
1645139329.9107647,3502,0,0,,42.33732519166667,-71.08606197833333,12.202,328149.15199259075,4689337.628414584,19.0,T,5
1645139330.109532,3503,0,0,,42.33732647499999,-71.08605922166666,12.241,328149.38259357295,4689337.765347627,19.0,T,5
1645139330.3275783,3504,0,0,,42.33732774833334,-71.08605683333333,12.231,328149.5828225516,4689337.90191467,19.0,T,5
1645139330.5355132,3505,0,0,,42.33732886999999,-71.08605491500002,12.325,328149.74391791783,4689338.022590174,19.0,T,5
1645139330.7290514,3506,0,0,,42.337330251666664,-71.08605261499999,12.377,328149.93716474704,4689338.171365339,19.0,T,5
1645139330.9422836,3507,0,0,,42.337331661666674,-71.08605050333334,12.342,328150.11497310136,4689338.323667336,19.0,T,5
1645139331.137934,3508,0,0,,42.337332951666674,-71.08604851000001,12.353,328150.2827057949,4689338.462883408,19.0,T,5
1645139331.325049,3509,0,0,,42.33733440666667,-71.08604587333333,12.36,328150.5038882884,4689338.6191212805,19.0,T,5
1645139331.4994702,3510,0,0,,42.33733585666667,-71.08604328833333,12.348,328150.72080064483,4689338.774908371,19.0,T,5
1645139331.733532,3511,0,0,,42.33733722166667,-71.08604111500001,12.417,328150.9035667279,4689338.922088851,19.0,T,5
1645139331.9350767,3512,0,0,,42.33733872166666,-71.08603865833334,12.424,328151.11004266737,4689339.08368743,19.0,T,5
1645139332.136488,3513,0,0,,42.33734005833333,-71.08603632166668,12.427,328151.3061875927,4689339.227391621,19.0,T,5
1645139332.3308468,3514,0,0,,42.337341378333335,-71.08603424,12.397,328151.4812792118,4689339.369760469,19.0,T,5
1645139332.5133877,3515,0,0,,42.337342973333335,-71.086031885,12.384,328151.6796382086,4689339.542113561,19.0,T,5
1645139332.7200603,3516,0,0,,42.337344463333324,-71.08602923833334,12.46,328151.90173981455,4689339.702217749,19.0,T,5
1645139332.9539862,3517,0,0,,42.33734585833334,-71.08602668833333,12.506,328152.11561884725,4689339.851968287,19.0,T,5
1645139333.1408596,3518,0,0,,42.33734767666667,-71.08602465,12.462,328152.2884979402,4689340.049760839,19.0,T,5
1645139333.3599863,3519,0,0,,42.33734878833334,-71.08602243666665,12.468,328152.47386922804,4689340.168729787,19.0,T,5
1645139333.5864778,3520,0,0,,42.33734935333334,-71.08601993000002,12.419,328152.68191731896,4689340.226402756,19.0,T,5
1645139333.7637022,3521,0,0,,42.33735072999999,-71.08601749,12.442,328152.8866841504,4689340.374339844,19.0,T,5
1645139333.9668243,3522,0,0,,42.337351785,-71.08601497333333,12.457,328153.0968908431,4689340.486403375,19.0,T,5
1645139334.1542969,3523,0,0,,42.337353245,-71.08601256166666,12.435,328153.2995504454,4689340.643651268,19.0,T,5
1645139334.25831,3524,0,0,,42.33735486333333,-71.08601030666668,12.401,328153.48973452876,4689340.818797496,19.0,T,5
1645139334.570453,3525,0,0,,42.33735626333334,-71.08600806,12.408,328153.6786373293,4689340.9697163245,19.0,T,5
1645139334.7678225,3526,0,0,,42.33735760999999,-71.08600561166666,12.418,328153.88400892774,4689341.114305328,19.0,T,5
1645139334.98123,3527,0,0,,42.33735927666667,-71.08600352333332,12.449,328154.0605939962,4689341.295155451,19.0,T,5
1645139335.1683002,3528,0,0,,42.33736060666667,-71.08600107666666,12.509,328154.2657828689,4689341.437897132,19.0,T,5
1645139335.3606603,3529,0,0,,42.33736175166668,-71.085998695,12.534,328154.4651128392,4689341.560227344,19.0,T,5
1645139335.5603988,3530,0,0,,42.337363315,-71.08599676666667,12.474,328154.62823497877,4689341.729926455,19.0,T,5
1645139335.7878642,3531,0,0,,42.337364635,-71.08599454833333,12.468,328154.8145855989,4689341.872019183,19.0,T,5
1645139335.9549816,3532,0,0,,42.337365816666676,-71.085991905,12.491,328155.0355725485,4689341.997892145,19.0,T,5
1645139336.0573397,3533,0,0,,42.33736701666667,-71.08598947666665,12.552,328155.23889689083,4689342.126235395,19.0,T,5
1645139336.3592377,3534,0,0,,42.33736814333333,-71.08598731499998,12.478,328155.42005242954,4689342.246974469,19.0,T,5
1645139336.5672653,3535,0,0,,42.33736992833333,-71.085985095,12.455,328155.6078069783,4689342.440698546,19.0,T,5
1645139336.75582,3536,0,0,,42.337371350000005,-71.085982845,12.481,328155.79704332096,4689342.59401661,19.0,T,5
1645139336.9447277,3537,0,0,,42.33737255333334,-71.08598068999999,12.484,328155.977858452,4689342.723282418,19.0,T,5
1645139337.149019,3538,0,0,,42.33737423166668,-71.08597821166667,12.488,328156.186604918,4689342.904639912,19.0,T,5
1645139337.258003,3539,0,0,,42.33737562,-71.08597595833334,12.462,328156.37602504843,4689343.05424984,19.0,T,5
1645139337.5625722,3540,0,0,,42.33737714833334,-71.08597356833334,12.576,328156.57708565774,4689343.2191295065,19.0,T,5
1645139337.7527635,3541,0,0,,42.337378525,-71.0859715,12.47,328156.75123297516,4689343.367817826,19.0,T,5
1645139337.9509578,3542,0,0,,42.33738012833334,-71.08596931333334,12.522,328156.9357464772,4689343.541436608,19.0,T,5
1645139338.1525867,3543,0,0,,42.33738151166668,-71.08596708166667,12.556,328157.12336797,4689343.690535132,19.0,T,5
1645139338.3599026,3544,0,0,,42.337383178333326,-71.08596465000001,12.539,328157.32823801687,4689343.870691473,19.0,T,5
1645139338.5610213,3545,0,0,,42.33738406000001,-71.08596250666666,12.523,328157.50721573655,4689343.964262271,19.0,T,5
1645139338.7724504,3546,0,0,,42.337385566666676,-71.08596045833333,12.55,328157.6800694532,4689344.1274265405,19.0,T,5
1645139338.8564606,3547,0,0,,42.33738738,-71.08595860499999,12.504,328157.8376936519,4689344.3250378845,19.0,T,5
1645139339.1440291,3548,0,0,,42.337388784999995,-71.08595654833333,12.523,328158.0109569476,4689344.476896012,19.0,T,5
1645139339.3435934,3549,0,0,,42.337390025000005,-71.08595420333333,12.456,328158.20752480085,4689344.609849453,19.0,T,5
