Time,header.seq,header.stamp.secs,header.stamp.nsecs,header.frame_id,latitude.data,longitude.data,altitude.data,utm_easting.data,utm_northing.data,zone_num.data,zone_letter.data,fix_quality.data
1645138509.2456727,1,0,0,,42.33725139833333,-71.08695220166668,11.619,328075.61077362613,4689331.233786299,19.0,T,5
1645138509.4493766,2,0,0,,42.337251298333335,-71.08695218999999,11.618,328075.61146225035,4689331.222658474,19.0,T,5
1645138509.6423006,3,0,0,,42.337251265,-71.08695215833332,11.62,328075.6139802375,4689331.218893033,19.0,T,5
1645138509.851033,4,0,0,,42.33725127166667,-71.08695212166667,11.61,328075.6170191533,4689331.219559179,19.0,T,5
1645138510.0494194,5,0,0,,42.337251291666675,-71.08695212833334,11.607,328075.61652443284,4689331.221793508,19.0,T,5
1645138510.2413259,6,0,0,,42.33725127166667,-71.08695212666666,11.605,328075.61660723435,4689331.219569289,19.0,T,5
1645138510.4531748,7,0,0,,42.337251263333336,-71.08695211333333,11.607,328075.6176829788,4689331.218616978,19.0,T,5
1645138510.6460686,8,0,0,,42.33725124999999,-71.08695209833331,11.603,328075.61888240336,4689331.2171060825,19.0,T,5
1645138510.853371,9,0,0,,42.337251229999985,-71.08695218333334,11.609,328075.6118252508,4689331.2150570955,19.0,T,5
1645138511.0513356,10,0,0,,42.33725121833333,-71.08695221166666,11.592,328075.60945924453,4689331.213818889,19.0,T,5
1645138511.2480903,11,0,0,,42.33725120333333,-71.08695225166666,11.58,328075.60612300364,4689331.212234131,19.0,T,5
1645138511.4493809,12,0,0,,42.33725120000001,-71.08695224333333,11.575,328075.6068004533,4689331.211847141,19.0,T,5
1645138511.644838,13,0,0,,42.337251148333344,-71.08695221666667,11.58,328075.6088565545,4689331.206056036,19.0,T,5
1645138511.8479028,14,0,0,,42.33725104333333,-71.08695227333334,11.558,328075.60390197637,4689331.194511161,19.0,T,5
1645138512.0518823,15,0,0,,42.33725100833333,-71.08695228666667,11.54,328075.60270813806,4689331.190651637,19.0,T,5
1645138512.2506049,16,0,0,,42.33725099,-71.08695231499999,11.529,328075.60032396356,4689331.188673147,19.0,T,5
1645138512.443133,17,0,0,,42.33725096166666,-71.08695226666667,11.538,328075.6042286402,4689331.18542922,19.0,T,5
1645138512.6485062,18,0,0,,42.33725095166666,-71.08695234166666,11.524,328075.5980225863,4689331.184470439,19.0,T,5
1645138512.8521986,19,0,0,,42.337250966666666,-71.08695235333332,11.523,328075.5971023186,4689331.186159665,19.0,T,5
1645138513.0500398,20,0,0,,42.33725096,-71.08695235333332,11.523,328075.5970841503,4689331.1854193825,19.0,T,5
1645138513.2481725,21,0,0,,42.33725094500001,-71.086952355,11.516,328075.59690596326,4689331.183757117,19.0,T,5
1645138513.4512956,22,0,0,,42.33725092166666,-71.08695241166667,11.5,328075.5921739445,4689331.181280701,19.0,T,5
1645138513.6483161,23,0,0,,42.33725093500001,-71.08695241000001,11.493,328075.59234758746,4689331.182757898,19.0,T,5
1645138513.8454533,24,0,0,,42.33725091333334,-71.08695237166667,11.492,328075.5954465965,4689331.1802744735,19.0,T,5
1645138514.0494285,25,0,0,,42.33725088833334,-71.08695235166667,11.495,328075.59702614555,4689331.177457976,19.0,T,5
1645138514.343642,26,0,0,,42.337250858333334,-71.08695236000001,11.495,328075.59625785454,4689331.174143556,19.0,T,5
1645138514.547554,27,0,0,,42.337250878333336,-71.08695234000001,11.492,328075.59796004154,4689331.176323963,19.0,T,5
1645138514.7423217,28,0,0,,42.33725086999999,-71.08695233499999,11.487,328075.59834925225,4689331.175388501,19.0,T,5
1645138514.9584877,29,0,0,,42.33725086999999,-71.086952325,11.477,328075.59917309234,4689331.175368281,19.0,T,5
1645138515.1483274,30,0,0,,42.33725088333334,-71.08695231666667,11.475,328075.59989596053,4689331.176831998,19.0,T,5
1645138515.3415577,31,0,0,,42.33725090833334,-71.08695226833335,11.472,328075.60394598765,4689331.179510333,19.0,T,5
1645138515.550834,32,0,0,,42.33725087999999,-71.08695234833333,11.461,328075.5972780499,4689331.176525882,19.0,T,5
1645138515.649256,33,0,0,,42.337250875,-71.08695231333331,11.459,328075.60014786705,4689331.175899905,19.0,T,5
1645138515.845758,34,0,0,,42.337250861666675,-71.08695235,11.45,328075.59709077876,4689331.174493477,19.0,T,5
1645138516.0520654,35,0,0,,42.33725083999999,-71.08695241999999,11.442,328075.59126484935,4689331.172229089,19.0,T,5
1645138516.2489257,36,0,0,,42.33725084333334,-71.08695235,11.446,328075.597040816,4689331.172457701,19.0,T,5
1645138516.4452333,37,0,0,,42.33725080833333,-71.08695235666667,11.439,328075.5963962071,4689331.168584696,19.0,T,5
1645138516.6482923,38,0,0,,42.33725081999999,-71.08695239833334,11.432,328075.59299533087,4689331.1699644355,19.0,T,5
1645138516.9446871,39,0,0,,42.33725069166666,-71.08695254,11.439,328075.5809745202,4689331.1560004335,19.0,T,5
1645138517.1507344,40,0,0,,42.337250653333335,-71.08695266833332,11.435,328075.5702974319,4689331.152003289,19.0,T,5
1645138517.3547566,41,0,0,,42.337250653333335,-71.08695275166666,11.44,328075.56343209464,4689331.152171779,19.0,T,5
1645138517.5427718,42,0,0,,42.337250581666666,-71.08695284166667,11.451,328075.55582222086,4689331.144395715,19.0,T,5
1645138517.7489355,43,0,0,,42.337250499999996,-71.08695294666666,11.45,328075.5469493356,4689331.135539555,19.0,T,5
1645138517.9586544,44,0,0,,42.33725051500001,-71.08695305166665,11.456,328075.53833988844,4689331.137417491,19.0,T,5
1645138518.1514595,45,0,0,,42.33725046833334,-71.08695318333334,11.464,328075.52736547706,4689331.132501731,19.0,T,5
1645138518.3772583,46,0,0,,42.33725041999999,-71.08695334666666,11.459,328075.513777695,4689331.127464924,19.0,T,5
1645138518.5518663,47,0,0,,42.33725040999999,-71.08695347166667,11.453,328075.5034524366,4689331.126607237,19.0,T,5
1645138518.7446463,48,0,0,,42.33725033833333,-71.08695352,11.465,328075.4992752335,4689331.118746928,19.0,T,5
1645138518.9549596,49,0,0,,42.33725031333333,-71.08695361666668,11.481,328075.4912433103,4689331.116166318,19.0,T,5
1645138519.1489568,50,0,0,,42.33725029833332,-71.08695372000001,11.485,328075.48268941,4689331.114709613,19.0,T,5
1645138519.3443227,51,0,0,,42.337250250000004,-71.086953795,11.489,328075.4763788884,4689331.109494208,19.0,T,5
1645138519.5416865,52,0,0,,42.33725019833334,-71.08695395666668,11.484,328075.4629193285,4689331.104083895,19.0,T,5
1645138519.7500265,53,0,0,,42.33725021166667,-71.08695412833333,11.483,328075.44881307136,4689331.105911552,19.0,T,5
1645138519.9507825,54,0,0,,42.33725017666667,-71.08695428666667,11.488,328075.43567354477,4689331.102345203,19.0,T,5
1645138520.1443107,55,0,0,,42.33725017,-71.08695436666667,11.494,328075.42906465183,4689331.101766672,19.0,T,5
1645138520.344306,56,0,0,,42.33725018333333,-71.08695439499999,11.506,328075.42676677665,4689331.103304525,19.0,T,5
1645138520.562893,57,0,0,,42.33725018666667,-71.08695444500002,11.515,328075.42265665636,4689331.103775761,19.0,T,5
1645138520.7419453,58,0,0,,42.33725016333333,-71.08695458333332,11.517,328075.41119660856,4689331.101464469,19.0,T,5
1645138520.967096,59,0,0,,42.33725012666667,-71.08695454666668,11.526,328075.4141174305,4689331.097318779,19.0,T,5
1645138521.1480143,60,0,0,,42.33725008166666,-71.086954615,11.534,328075.40836521826,4689331.092460034,19.0,T,5
1645138521.351148,61,0,0,,42.33725006333334,-71.08695474166667,11.534,328075.39787994314,4689331.090680367,19.0,T,5
1645138521.5473638,62,0,0,,42.337250049999994,-71.08695486833335,11.535,328075.38740829204,4689331.089455908,19.0,T,5
1645138521.7481697,63,0,0,,42.33724999666667,-71.08695496333334,11.541,328075.37943645974,4689331.083725731,19.0,T,5
1645138521.9458642,64,0,0,,42.337249936666666,-71.08695501166667,11.555,328075.37529105105,4689331.0771609135,19.0,T,5
1645138522.1667323,65,0,0,,42.33724994666667,-71.08695512833332,11.554,328075.3657068333,4689331.078507225,19.0,T,5
1645138522.3482716,66,0,0,,42.33724992166667,-71.08695523166665,11.553,328075.3571256826,4689331.075940098,19.0,T,5
1645138522.5381677,67,0,0,,42.33724986666666,-71.08695531833335,11.557,328075.34983584186,4689331.070007997,19.0,T,5
1645138522.7428875,68,0,0,,42.33724983666666,-71.08695540999999,11.561,328075.34220221546,4689331.066862066,19.0,T,5
1645138522.956912,69,0,0,,42.337249830000005,-71.086955575,11.554,328075.32859067665,4689331.0664554,19.0,T,5
1645138523.1485534,70,0,0,,42.33724980833334,-71.08695568,11.555,328075.31988130376,4689331.064261781,19.0,T,5
1645138523.3497858,71,0,0,,42.337249796666676,-71.08695577833333,11.557,328075.31174841075,4689331.063165109,19.0,T,5
1645138523.5438528,72,0,0,,42.33724976,-71.086955835,11.566,328075.3069800572,4689331.059208128,19.0,T,5
1645138523.7584555,73,0,0,,42.33724970333333,-71.08695596,11.562,328075.29652761837,4689331.053168464,19.0,T,5
1645138523.9589005,74,0,0,,42.33724970500001,-71.08695607833334,11.567,328075.28678338183,4689331.053592796,19.0,T,5
1645138524.1538036,75,0,0,,42.33724967,-71.08695617333333,11.569,328075.2788615123,4689331.049898393,19.0,T,5
1645138524.3468547,76,0,0,,42.337249666666665,-71.08695626333332,11.571,328075.2714378654,4689331.0497102225,19.0,T,5
1645138524.5544512,77,0,0,,42.33724963166666,-71.08695638666666,11.577,328075.2611817841,4689331.046073106,19.0,T,5
1645138524.7527478,78,0,0,,42.33724959333334,-71.08695654499999,11.575,328075.24803317315,4689331.042136619,19.0,T,5
1645138524.9511113,79,0,0,,42.33724959999999,-71.08695656833335,11.574,328075.24612904445,4689331.042924077,19.0,T,5
1645138525.1596253,80,0,0,,42.33724957333334,-71.08695669333332,11.569,328075.2357583672,4689331.040215688,19.0,T,5
1645138525.3636255,81,0,0,,42.337249545,-71.08695671333332,11.587,328075.2340334717,4689331.0371099245,19.0,T,5
1645138525.5673118,82,0,0,,42.33724951833333,-71.086956805,11.592,328075.22640892514,4689331.034334135,19.0,T,5
1645138525.764464,83,0,0,,42.337249468333326,-71.08695687166667,11.598,328075.2207803929,4689331.028916812,19.0,T,5
1645138525.9554238,84,0,0,,42.33724941666666,-71.086957015,11.602,328075.2088312084,4689331.0234694285,19.0,T,5
1645138526.1644793,85,0,0,,42.337249410000005,-71.086957085,11.603,328075.2030461554,4689331.02287068,19.0,T,5
1645138526.3602033,86,0,0,,42.337249410000005,-71.086957215,11.599,328075.1923362303,4689331.0231335275,19.0,T,5
1645138526.5675404,87,0,0,,42.337249376666655,-71.08695729666667,11.603,328075.18551735755,4689331.019597236,19.0,T,5
1645138526.762325,88,0,0,,42.33724937166667,-71.08695733666667,11.618,328075.182208369,4689331.019122902,19.0,T,5
1645138526.969141,89,0,0,,42.33724936833334,-71.08695745833333,11.626,328075.17217589344,4689331.018998759,19.0,T,5
1645138527.0424879,90,0,0,,42.337249424999996,-71.08695748166666,11.616,328075.1704080293,4689331.025338336,19.0,T,5
1645138527.2508023,91,0,0,,42.337249448333324,-71.08695745666667,11.604,328075.17253121966,4689331.027878777,19.0,T,5
1645138527.447357,92,0,0,,42.33724945666666,-71.08695747333331,11.601,328075.1711808626,4689331.028837829,19.0,T,5
1645138527.6503935,93,0,0,,42.337249475,-71.08695752499999,11.592,328075.1669743167,4689331.0309780715,19.0,T,5
1645138527.8476691,94,0,0,,42.337249448333324,-71.08695752499999,11.578,328075.1669016434,4689331.028016941,19.0,T,5
1645138528.0524786,95,0,0,,42.33724944666666,-71.08695755000001,11.573,328075.164837498,4689331.027882418,19.0,T,5
1645138528.2466822,96,0,0,,42.33724946333333,-71.08695760833334,11.565,328075.1600771827,4689331.029851069,19.0,T,5
1645138528.5532365,97,0,0,,42.33724947833333,-71.08695762833334,11.554,328075.15847037913,4689331.031557141,19.0,T,5
1645138528.647316,98,0,0,,42.337249485,-71.086957635,11.553,328075.1579393222,4689331.032310904,19.0,T,5
1645138528.8488922,99,0,0,,42.33724945333333,-71.08695766166667,11.548,328075.15565611294,4689331.028848479,19.0,T,5
1645138529.0473983,100,0,0,,42.33724946333333,-71.08695771500001,11.536,328075.15128955035,4689331.030066738,19.0,T,5
1645138529.2514017,101,0,0,,42.33724945000001,-71.08695771833334,11.534,328075.1509786011,4689331.028592914,19.0,T,5
1645138529.4486165,102,0,0,,42.33724945666666,-71.08695771,11.53,328075.15168330516,4689331.029316346,19.0,T,5
1645138529.6415362,103,0,0,,42.337249441666664,-71.08695762833334,11.54,328075.1583704533,4689331.027485589,19.0,T,5
1645138529.953196,104,0,0,,42.33724938333334,-71.08695765333333,11.53,328075.1561518813,4689331.021058666,19.0,T,5
1645138530.144121,105,0,0,,42.33724938166666,-71.08695764666666,11.524,328075.1566965667,4689331.020860114,19.0,T,5
1645138530.3519309,106,0,0,,42.33724940666666,-71.08695757833334,11.529,328075.16239427205,4689331.02349801,19.0,T,5
1645138530.4458787,107,0,0,,42.33724941833334,-71.08695751333332,11.536,328075.1677810344,4689331.024662082,19.0,T,5
1645138530.7565167,108,0,0,,42.33724944666666,-71.08695748666668,11.532,328075.1700551553,4689331.027754364,19.0,T,5
1645138530.9561121,109,0,0,,42.337249420000006,-71.08695748833333,11.523,328075.1698451757,4689331.024796604,19.0,T,5
1645138531.148921,110,0,0,,42.33724940333334,-71.08695745499999,11.524,328075.1725458898,4689331.0228785025,19.0,T,5
1645138531.246657,111,0,0,,42.33724941833334,-71.08695741833333,11.528,328075.1756075162,4689331.024470002,19.0,T,5
1645138531.4534943,112,0,0,,42.337249428333344,-71.08695742,11.522,328075.1754974624,4689331.025583795,19.0,T,5
1645138531.6490397,113,0,0,,42.337249410000005,-71.08695742166665,11.516,328075.1753101931,4689331.023551388,19.0,T,5
1645138531.8436775,114,0,0,,42.33724939833334,-71.08695745499999,11.52,328075.17253226356,4689331.022323291,19.0,T,5
1645138532.1533437,115,0,0,,42.337249376666655,-71.086957465,11.517,328075.1716493743,4689331.01993759,19.0,T,5
1645138532.3488793,116,0,0,,42.33724938166666,-71.08695742,11.514,328075.175370284,4689331.020401816,19.0,T,5
1645138532.5512912,117,0,0,,42.33724938833334,-71.08695744833335,11.509,328075.1730542364,4689331.0211993875,19.0,T,5
1645138532.7517905,118,0,0,,42.337249390000004,-71.08695740833335,11.511,328075.17635414086,4689331.021303581,19.0,T,5
1645138532.960071,119,0,0,,42.33724944000001,-71.0869573,11.515,328075.185415342,4689331.026636662,19.0,T,5
1645138533.152674,120,0,0,,42.33724943000001,-71.086957315,11.508,328075.1841523283,4689331.025556565,19.0,T,5
1645138533.3504894,121,0,0,,42.33724942666666,-71.08695734333334,11.503,328075.18180903024,4689331.025243709,19.0,T,5
1645138533.5470102,122,0,0,,42.337249420000006,-71.08695728333333,11.507,328075.18673390447,4689331.0243821135,19.0,T,5
1645138533.7526948,123,0,0,,42.337249424999996,-71.08695725666666,11.512,328075.18894444034,4689331.024883407,19.0,T,5
1645138533.949357,124,0,0,,42.33724941166666,-71.08695725666666,11.506,328075.1889081036,4689331.023402843,19.0,T,5
1645138534.1508067,125,0,0,,42.33724941666666,-71.08695720166666,11.514,328075.19345285126,4689331.02384685,19.0,T,5
1645138534.3455849,126,0,0,,42.337249410000005,-71.08695720666665,11.523,328075.19302276406,4689331.023116678,19.0,T,5
1645138534.4675272,127,0,0,,42.337249428333344,-71.08695718166668,11.519,328075.1951323261,4689331.0251019085,19.0,T,5
1645138534.6492326,128,0,0,,42.33724939499999,-71.086957235,11.51,328075.19064766937,4689331.02150833,19.0,T,5
1645138534.849082,129,0,0,,42.337249448333324,-71.08695718166668,11.511,328075.195186831,4689331.027322753,19.0,T,5
1645138535.0451984,130,0,0,,42.337249445,-71.08695717166667,11.511,328075.19600158907,4689331.026932395,19.0,T,5
1645138535.250427,131,0,0,,42.33724944666666,-71.08695723,11.498,328075.1912003949,4689331.027235408,19.0,T,5
1645138535.4479415,132,0,0,,42.33724945000001,-71.08695711000001,11.519,328075.2010955641,4689331.027362923,19.0,T,5
1645138535.645549,133,0,0,,42.337249458333325,-71.08695709666665,11.507,328075.20221673144,4689331.028261315,19.0,T,5
1645138535.948554,134,0,0,,42.33724939166666,-71.08695710166667,11.497,328075.201623125,4689331.0208686,19.0,T,5
1645138536.1490035,135,0,0,,42.33724941166666,-71.08695714000001,11.484,328075.198519576,4689331.023166954,19.0,T,5
1645138536.3415008,136,0,0,,42.33724939833334,-71.08695710166667,11.488,328075.20164129336,4689331.021608885,19.0,T,5
1645138536.560548,137,0,0,,42.337249404999994,-71.08695704166666,11.495,328075.2066025062,4689331.022227852,19.0,T,5
1645138536.745761,138,0,0,,42.33724938,-71.08695703833335,11.493,328075.2068089878,4689331.019445053,19.0,T,5
1645138536.9515746,139,0,0,,42.33724933666667,-71.08695700166666,11.49,328075.2097116434,4689331.014559081,19.0,T,5
1645138537.1523628,140,0,0,,42.337249353333334,-71.08695694333333,11.49,328075.21456280036,4689331.016291842,19.0,T,5
1645138537.3425922,141,0,0,,42.33724931499999,-71.08695693166668,11.488,328075.21541947674,4689331.012011628,19.0,T,5
1645138537.5567608,142,0,0,,42.33724931666667,-71.08695686833332,11.5,328075.2206416804,4689331.012068647,19.0,T,5
1645138537.7483215,143,0,0,,42.337249308333334,-71.08695682666666,11.498,328075.2240516366,4689331.011059047,19.0,T,5
1645138537.96006,144,0,0,,42.337249318333335,-71.08695684999999,11.487,328075.22215659416,4689331.012216648,19.0,T,5
1645138538.1411536,145,0,0,,42.33724927666667,-71.086956865,11.483,328075.220807281,4689331.007620211,19.0,T,5
1645138538.3499377,146,0,0,,42.337249243333325,-71.08695690333333,11.472,328075.2175583833,4689331.003996304,19.0,T,5
1645138538.4441648,147,0,0,,42.337249253333326,-71.08695687500001,11.464,328075.2199198518,4689331.00504944,19.0,T,5
1645138538.6488798,148,0,0,,42.33724921666666,-71.08695682666666,11.468,328075.22380182217,4689331.000880162,19.0,T,5
1645138538.8530169,149,0,0,,42.33724916833334,-71.08695677000001,11.486,328075.2283385296,4689330.995398543,19.0,T,5
1645138539.0497682,150,0,0,,42.337249131666674,-71.08695672833333,11.486,328075.23167127476,4689330.991242742,19.0,T,5
1645138539.2456868,151,0,0,,42.337249151666676,-71.08695671000001,11.497,328075.2332361535,4689330.993426522,19.0,T,5
1645138539.441631,152,0,0,,42.33724906333333,-71.08695668166666,11.52,328075.2353296392,4689330.983560491,19.0,T,5
1645138539.649046,153,0,0,,42.33724907833333,-71.08695661833333,11.561,328075.24058817315,4689330.985098072,19.0,T,5
1645138539.8445158,154,0,0,,42.33724929333333,-71.08695654,11.529,328075.24762751773,4689331.008813799,19.0,T,5
1645138540.0492625,155,0,0,,42.33724923500001,-71.086956565,11.501,328075.24540894595,4689331.002386876,19.0,T,5
1645138540.2447863,156,0,0,,42.337249246666666,-71.08695658666667,11.508,328075.2436557497,4689331.003726178,19.0,T,5
1645138540.4513981,157,0,0,,42.33724913666667,-71.08695664000001,11.51,328075.2389621574,4689330.991619352,19.0,T,5
1645138540.6467934,158,0,0,,42.33724911166667,-71.08695657833333,11.521,328075.24397437717,4689330.988718609,19.0,T,5
1645138540.8565083,159,0,0,,42.33724908333333,-71.08695668666665,11.519,328075.2349722232,4689330.985791448,19.0,T,5
1645138541.0481083,160,0,0,,42.337249035,-71.08695671000001,11.515,328075.2329182079,4689330.9804715775,19.0,T,5
1645138541.2416663,161,0,0,,42.33724908166667,-71.08695669000001,11.549,328075.2346930663,4689330.985613117,19.0,T,5
1645138541.4459822,162,0,0,,42.33724915999999,-71.08695665666667,11.57,328075.237652679,4689330.994244038,19.0,T,5
1645138541.6405933,163,0,0,,42.33724910166667,-71.08695660666667,11.567,328075.24161290866,4689330.987665474,19.0,T,5
1645138541.8459098,164,0,0,,42.337249138333334,-71.086956455,11.6,328075.25420774816,4689330.991430371,19.0,T,5
1645138542.0399957,165,0,0,,42.33724910666667,-71.08695649833332,11.596,328075.2505514757,4689330.988001645,19.0,T,5
1645138542.2390747,166,0,0,,42.33724911833333,-71.08695641,11.61,328075.2578605266,4689330.989118538,19.0,T,5
1645138542.440961,167,0,0,,42.337249138333334,-71.08695642166667,11.603,328075.25695388316,4689330.991362975,19.0,T,5
1645138542.649435,168,0,0,,42.33724920166666,-71.08695634166666,11.626,328075.2637172069,4689330.998233904,19.0,T,5
1645138542.852466,169,0,0,,42.337249131666674,-71.08695636000002,11.589,328075.26201606577,4689330.990498008,19.0,T,5
1645138543.048164,170,0,0,,42.33724904833333,-71.086956225,11.589,328075.27291080804,4689330.980971519,19.0,T,5
1645138543.2393553,171,0,0,,42.33724897666666,-71.08695619666668,11.582,328075.27504971466,4689330.972956194,19.0,T,5
1645138543.442412,172,0,0,,42.337248874999986,-71.08695627499999,11.566,328075.26831922936,4689330.961825269,19.0,T,5
1645138543.6454654,173,0,0,,42.33724890499999,-71.08695604500001,11.593,328075.28734931897,4689330.964691502,19.0,T,5
1645138543.8400002,174,0,0,,42.33724891166667,-71.086956195,11.583,328075.27500987996,4689330.965735072,19.0,T,5
1645138544.0474677,175,0,0,,42.3372489,-71.08695629166667,11.576,328075.267014293,4689330.9646350285,19.0,T,5
1645138544.2356296,176,0,0,,42.337248943333336,-71.08695626999999,11.576,328075.2689173778,4689330.969403056,19.0,T,5
1645138544.4366806,177,0,0,,42.33724895333334,-71.08695628333332,11.566,328075.26784617547,4689330.970540438,19.0,T,5
1645138544.6431553,178,0,0,,42.33724891333333,-71.08695632999999,11.555,328075.26389257575,4689330.9661930995,19.0,T,5
1645138544.847884,179,0,0,,42.337249011666664,-71.08695606500001,11.627,328075.2859923319,4689330.976576461,19.0,T,5
1645138545.0526671,180,0,0,,42.337249005,-71.08695606666667,11.635,328075.2858368573,4689330.975839548,19.0,T,5
1645138545.2418554,181,0,0,,42.33724897333334,-71.08695607666667,11.63,328075.28492671566,4689330.972343427,19.0,T,5
1645138545.445201,182,0,0,,42.33724898666666,-71.08695611333333,11.626,328075.2819423046,4689330.973898126,19.0,T,5
1645138545.6554341,183,0,0,,42.33724895333334,-71.08695610333334,11.632,328075.28267530305,4689330.970176496,19.0,T,5
1645138545.842109,184,0,0,,42.33724899166666,-71.08695604333333,11.64,328075.2877228135,4689330.974311806,19.0,T,5
1645138546.0476909,185,0,0,,42.337248960000004,-71.086956,11.635,328075.2912064912,4689330.9707078505,19.0,T,5
1645138546.2447417,186,0,0,,42.33724900666666,-71.086956,11.635,328075.29133366933,4689330.975889825,19.0,T,5
1645138546.4431434,187,0,0,,42.33724896833334,-71.08695604500001,11.627,328075.2875219181,4689330.971724188,19.0,T,5
1645138546.6475978,188,0,0,,42.33724895333334,-71.086955985,11.633,328075.2924240839,4689330.969937238,19.0,T,5
1645138546.8433077,189,0,0,,42.33724900000001,-71.08695589000001,11.634,328075.3003777439,4689330.974927136,19.0,T,5
1645138547.047367,190,0,0,,42.33724896499999,-71.08695583333332,11.635,328075.3049507923,4689330.970926076,19.0,T,5
1645138547.2413464,191,0,0,,42.33724895166666,-71.08695580499999,11.631,328075.30724867166,4689330.969388224,19.0,T,5
1645138547.4480987,192,0,0,,42.33724890333333,-71.08695584333334,11.617,328075.30395889323,4689330.964098683,19.0,T,5
1645138547.6503308,193,0,0,,42.3372489,-71.08695582833333,11.617,328075.3051855702,4689330.963698213,19.0,T,5
1645138547.8426273,194,0,0,,42.33724888166667,-71.08695584333334,11.613,328075.3038998462,4689330.961692765,19.0,T,5
1645138548.0440958,195,0,0,,42.33724888666667,-71.08695585166667,11.6,328075.3032269408,4689330.962264826,19.0,T,5
1645138548.249219,196,0,0,,42.33724886833333,-71.08695583000001,11.595,328075.3049619644,4689330.960185242,19.0,T,5
1645138548.437554,197,0,0,,42.33724889,-71.08695578000001,11.603,328075.30914021394,4689330.962490065,19.0,T,5
1645138548.6399574,198,0,0,,42.33724884833333,-71.08695578000001,11.601,328075.30902666197,4689330.957863299,19.0,T,5
1645138548.8527217,199,0,0,,42.33724887333333,-71.08695580833333,11.592,328075.30676057923,4689330.960696645,19.0,T,5
1645138549.04432,200,0,0,,42.33724885,-71.08695562333334,11.58,328075.3219380389,4689330.9577316055,19.0,T,5
1645138549.2459767,201,0,0,,42.337248826666666,-71.08695561833332,11.574,328075.3222863709,4689330.955130507,19.0,T,5
1645138549.4469352,202,0,0,,42.33724881166666,-71.08695558166667,11.567,328075.3252662398,4689330.953390734,19.0,T,5
1645138549.6414056,203,0,0,,42.33724882166666,-71.08695555333333,11.554,328075.3276277083,4689330.954443871,19.0,T,5
1645138549.8431551,204,0,0,,42.33724878833334,-71.08695546333333,11.574,328075.3349514317,4689330.950560489,19.0,T,5
1645138550.0472975,205,0,0,,42.337248759999994,-71.08695538,11.581,328075.34173955175,4689330.947245794,19.0,T,5
1645138550.2374938,206,0,0,,42.337248765000005,-71.08695534666667,11.575,328075.34449931304,4689330.947733611,19.0,T,5
1645138550.4430914,207,0,0,,42.33724873833334,-71.08695533666668,11.57,328075.345250482,4689330.944752263,19.0,T,5
1645138550.6448646,208,0,0,,42.33724875166666,-71.08695530500002,11.562,328075.34789564507,4689330.9461688,19.0,T,5
1645138550.850339,209,0,0,,42.337248759999994,-71.08695529,11.545,328075.3491541167,4689330.947063824,19.0,T,5
1645138551.0538874,210,0,0,,42.33724878500001,-71.08695526500001,11.543,328075.3512818491,4689330.949789338,19.0,T,5
1645138551.2505844,211,0,0,,42.33724878166666,-71.08695520500001,11.542,328075.3562158096,4689330.94929788,19.0,T,5
1645138551.447392,212,0,0,,42.33724876833334,-71.08695521333334,11.535,328075.35549293715,4689330.947834166,19.0,T,5
1645138551.6419547,213,0,0,,42.337248769999995,-71.08695516666667,11.519,328075.359342069,4689330.947924879,19.0,T,5
1645138551.8505418,214,0,0,,42.337248775000006,-71.08695507666665,11.529,328075.36677026225,4689330.948298121,19.0,T,5
1645138552.0536091,215,0,0,,42.33724875666666,-71.08695505833333,11.526,328075.36823067325,4689330.946225276,19.0,T,5
1645138552.2495048,216,0,0,,42.33724877166666,-71.08695499333332,11.525,328075.37362651556,4689330.947759487,19.0,T,5
1645138552.4528344,217,0,0,,42.337248769999995,-71.08695491499999,11.533,328075.3800753899,4689330.947416034,19.0,T,5
1645138552.642205,218,0,0,,42.337248711666675,-71.08695482166665,11.54,328075.3876055948,4689330.940749855,19.0,T,5
1645138552.8584418,219,0,0,,42.33724869999999,-71.08695476999999,11.539,328075.39183030906,4689330.939349892,19.0,T,5
1645138553.0523775,220,0,0,,42.337248685,-71.08695469833332,11.543,328075.3976936236,4689330.937539355,19.0,T,5
1645138553.2525194,221,0,0,,42.33724867999999,-71.086954635,11.538,328075.4028976505,4689330.936856089,19.0,T,5
1645138553.4528399,222,0,0,,42.337248635,-71.08695457833333,11.541,328075.4074434465,4689330.931744609,19.0,T,5
1645138553.6551704,223,0,0,,42.33724866833333,-71.08695453833333,11.545,328075.4108296483,4689330.935365144,19.0,T,5
1645138553.853501,224,0,0,,42.337248635,-71.086954495,11.543,328075.41430878395,4689330.931576117,19.0,T,5
1645138554.0451503,225,0,0,,42.337248650000014,-71.08695443666667,11.547,328075.41915539687,4689330.933123809,19.0,T,5
1645138554.2548287,226,0,0,,42.33724861333333,-71.08695437166665,11.551,328075.42441043694,4689330.9289208315,19.0,T,5
1645138554.446939,227,0,0,,42.337248635,-71.08695432666667,11.546,328075.42817676533,4689330.931235763,19.0,T,5
1645138554.64489,228,0,0,,42.33724864000001,-71.08695423333333,11.549,328075.43587957125,4689330.931602266,19.0,T,5
1645138554.8616312,229,0,0,,42.337248625,-71.08695426666667,11.531,328075.4330925555,4689330.930004026,19.0,T,5
1645138555.0484903,230,0,0,,42.33724861000001,-71.086954215,11.526,328075.4373081856,4689330.928233926,19.0,T,5
1645138555.251833,231,0,0,,42.337248595,-71.08695421166667,11.524,328075.4375419217,4689330.92656155,19.0,T,5
1645138555.4508579,232,0,0,,42.337248598333325,-71.08695409833334,11.531,328075.44688786566,4689330.926702541,19.0,T,5
1645138555.6531386,233,0,0,,42.33724861833333,-71.08695402833335,11.527,328075.4527092511,4689330.928781858,19.0,T,5
1645138555.855212,234,0,0,,42.337248601666666,-71.08695396499999,11.527,328075.4578814898,4689330.926803096,19.0,T,5
1645138556.0423968,235,0,0,,42.337248585,-71.08695387833332,11.531,328075.4649760193,4689330.924777159,19.0,T,5
1645138556.2513046,236,0,0,,42.33724858666666,-71.086953815,11.528,328075.4701982187,4689330.924834176,19.0,T,5
1645138556.4539692,237,0,0,,42.33724857666666,-71.086953735,11.521,328075.4767616911,4689330.9235620005,19.0,T,5
1645138556.6554918,238,0,0,,42.33724858000001,-71.08695368166667,11.517,328075.48116459034,4689330.923824308,19.0,T,5
1645138556.8593316,239,0,0,,42.33724856166666,-71.086953615,11.512,328075.48660689755,4689330.921653736,19.0,T,5
1645138557.0529041,240,0,0,,42.33724855666666,-71.08695351333334,11.512,328075.49496898265,4689330.920892964,19.0,T,5
1645138557.2527654,241,0,0,,42.33724853833334,-71.08695352166666,11.511,328075.49423248833,4689330.918874038,19.0,T,5
1645138557.4498131,242,0,0,,42.337248544999994,-71.08695341500001,11.505,328075.5030382869,4689330.91939865,19.0,T,5
1645138557.645398,243,0,0,,42.337248540000004,-71.08695337166667,11.493,328075.5065946379,4689330.918755825,19.0,T,5
1645138557.851704,244,0,0,,42.337248605,-71.08695340666667,11.47,328075.50388833525,4689330.926044344,19.0,T,5
1645138558.0541682,245,0,0,,42.33724859000001,-71.08695341166667,11.452,328075.50343553553,4689330.924388818,19.0,T,5
1645138558.2563334,246,0,0,,42.337248588333324,-71.08695335666665,11.446,328075.5079621191,4689330.924092542,19.0,T,5
1645138558.4500418,247,0,0,,42.337248591666665,-71.08695327000001,11.437,328075.5151111513,4689330.924287451,19.0,T,5
1645138558.6427686,248,0,0,,42.33724861000001,-71.086953185,11.438,328075.5221637601,4689330.926151369,19.0,T,5
1645138558.8490663,249,0,0,,42.33724858000001,-71.08695314166665,11.431,328075.52565197996,4689330.922732482,19.0,T,5
1645138559.0447192,250,0,0,,42.33724859666666,-71.08695304999999,11.428,328075.5332492698,4689330.924397845,19.0,T,5
1645138559.2462342,251,0,0,,42.337248598333325,-71.086953,11.419,328075.5373730144,4689330.92448182,19.0,T,5
1645138559.4406133,252,0,0,,42.337248575,-71.08695290833333,11.425,328075.54486129875,4689330.921705492,19.0,T,5
1645138559.6423159,253,0,0,,42.33724854333334,-71.08695282833334,11.418,328075.55136572,4689330.9180274,19.0,T,5
1645138559.8452015,254,0,0,,42.33724857166666,-71.086952695,11.424,328075.5624274794,4689330.920904012,19.0,T,5
1645138560.040955,255,0,0,,42.337248591666665,-71.08695257500001,11.425,328075.57236806734,4689330.922882232,19.0,T,5
1645138560.249737,256,0,0,,42.33724859000001,-71.08695252,11.419,328075.5768946489,4689330.922585958,19.0,T,5
1645138560.4414945,257,0,0,,42.337248608333326,-71.08695242666666,11.41,328075.58463379135,4689330.924433023,19.0,T,5
1645138560.6453183,258,0,0,,42.33724859333333,-71.08695232833333,11.409,328075.5926940114,4689330.922568566,19.0,T,5
1645138560.8498263,259,0,0,,42.337248615,-71.08695236666668,11.391,328075.58959500014,4689330.925051991,19.0,T,5
1645138561.0436392,260,0,0,,42.337248608333326,-71.08695224833335,11.386,328075.5993256107,4689330.924072451,19.0,T,5
1645138561.2439525,261,0,0,,42.33724860000001,-71.08695221166666,11.375,328075.6023236521,4689330.923072962,19.0,T,5
1645138561.4548404,262,0,0,,42.33724861833333,-71.08695210333333,11.373,328075.61129855155,4689330.9248897,19.0,T,5
1645138561.64272,263,0,0,,42.33724862333333,-71.08695197166666,11.373,328075.62215941143,4689330.9251786955,19.0,T,5
1645138561.8510456,264,0,0,,42.33724862833333,-71.086951915,11.365,328075.62684146967,4689330.925619331,19.0,T,5
1645138562.0411878,265,0,0,,42.33724865333333,-71.08695183333333,11.353,328075.6336376319,4689330.928230271,19.0,T,5
1645138562.2513366,266,0,0,,42.337248665,-71.08695175833334,11.346,328075.639848228,4689330.92937412,19.0,T,5
1645138562.441137,267,0,0,,42.337248659999986,-71.08695164333335,11.349,328075.649308768,4689330.92858639,19.0,T,5
1645138562.642481,268,0,0,,42.33724865333333,-71.08695155166667,11.346,328075.656842471,4689330.927660768,19.0,T,5
1645138562.8448153,269,0,0,,42.337248605,-71.08695153999999,11.316,328075.6576718995,4689330.922270131,19.0,T,5
1645138563.0411367,270,0,0,,42.337248575,-71.08695150499999,11.302,328075.66047358565,4689330.918868093,19.0,T,5
1645138563.2382524,271,0,0,,42.337248585,-71.08695142,11.298,328075.6675034798,4689330.9198066555,19.0,T,5
1645138563.4411602,272,0,0,,42.33724852833334,-71.0869513,11.298,328075.6772351368,4689330.913271628,19.0,T,5
1645138563.6446967,273,0,0,,42.337248516666655,-71.08695120833333,11.29,328075.6847552114,4689330.911790792,19.0,T,5
1645138563.8411427,274,0,0,,42.33724854333334,-71.08695115833333,11.276,328075.68894708704,4689330.914650828,19.0,T,5
1645138564.043376,275,0,0,,42.33724853833334,-71.08695108333332,11.26,328075.6951122667,4689330.913943973,19.0,T,5
1645138564.2448277,276,0,0,,42.33724855166666,-71.08695098333334,11.248,328075.7033870082,4689330.915222349,19.0,T,5
1645138564.4458308,277,0,0,,42.337248540000004,-71.08695086833332,11.243,328075.71282937995,4689330.913694336,19.0,T,5
1645138564.6533592,278,0,0,,42.33724856333334,-71.086950825,11.228,328075.71646294394,4689330.916197709,19.0,T,5
1645138564.8464596,279,0,0,,42.337248578333345,-71.08695077333333,11.223,328075.7207603335,4689330.91775888,19.0,T,5
1645138565.0491922,280,0,0,,42.33724860333333,-71.08695065166667,11.219,328075.730851856,4689330.920288941,19.0,T,5
1645138565.243821,281,0,0,,42.337248564999996,-71.08695060166666,11.206,328075.73486659094,4689330.915931221,19.0,T,5
1645138565.4485583,282,0,0,,42.337248581666664,-71.08695054166665,11.202,328075.7398550563,4689330.917660614,19.0,T,5
1645138565.653925,283,0,0,,42.337248578333345,-71.086950415,11.196,328075.7502812827,4689330.917034367,19.0,T,5
1645138565.8489487,284,0,0,,42.33724858666666,-71.086950345,11.176,328075.7560708778,4689330.917818186,19.0,T,5
1645138566.0428212,285,0,0,,42.33724858333334,-71.08695027166667,11.167,328075.76210329105,4689330.917299774,19.0,T,5
1645138566.2468028,286,0,0,,42.33724858333334,-71.08695020833333,11.159,328075.76732094836,4689330.91717172,19.0,T,5
1645138566.4514298,287,0,0,,42.33724856666666,-71.08695014,11.155,328075.77290510404,4689330.915182849,19.0,T,5
1645138566.6453593,288,0,0,,42.33724854666666,-71.0869501,11.144,328075.77614596166,4689330.912881127,19.0,T,5
1645138566.8487902,289,0,0,,42.337248560000006,-71.08695007666667,11.132,328075.77810459316,4689330.914314514,19.0,T,5
1645138567.0451732,290,0,0,,42.337248598333325,-71.08694999166667,11.121,328075.78521170444,4689330.918399275,19.0,T,5
1645138567.2439096,291,0,0,,42.33724860000001,-71.08694996166668,11.107,328075.7876877668,4689330.918523691,19.0,T,5
1645138567.452114,292,0,0,,42.337248591666665,-71.08694985999999,11.104,328075.79604076984,4689330.917392776,19.0,T,5
1645138567.6462252,293,0,0,,42.33724861333333,-71.08694980000001,11.098,328075.80104285723,4689330.919677383,19.0,T,5
1645138567.8519588,294,0,0,,42.33724858666666,-71.08694981166667,11.073,328075.8000090399,4689330.916739841,19.0,T,5
1645138568.0481124,295,0,0,,42.33724858000001,-71.08694976333334,11.069,328075.8039727657,4689330.915901834,19.0,T,5
1645138568.2498703,296,0,0,,42.33724859000001,-71.08694969833333,11.059,328075.80935498385,4689330.916880835,19.0,T,5
1645138568.4434838,297,0,0,,42.33724857333334,-71.08694965333333,11.052,328075.8130168425,4689330.914939145,19.0,T,5
1645138568.652832,298,0,0,,42.33724858666666,-71.08694958666666,11.047,328075.8185454511,4689330.916284913,19.0,T,5
1645138568.8573468,299,0,0,,42.33724859333333,-71.08694953,11.034,328075.82323204924,4689330.916910621,19.0,T,5
1645138569.052723,300,0,0,,42.33724860333333,-71.08694943833333,11.025,328075.83081117086,4689330.917835705,19.0,T,5
1645138569.2445235,301,0,0,,42.33724862166667,-71.08694937166666,11.021,328075.8363534056,4689330.919736689,19.0,T,5
1645138569.4503174,302,0,0,,42.337248611666666,-71.08694930666667,11.018,328075.84168111475,4689330.918494842,19.0,T,5
1645138569.648634,303,0,0,,42.33724861833333,-71.08694923499999,11.011,328075.84760347626,4689330.919090223,19.0,T,5
1645138569.8446438,304,0,0,,42.33724861666666,-71.086949255,10.991,328075.8459512519,4689330.918945589,19.0,T,5
1645138570.0483565,305,0,0,,42.33724860666666,-71.08694926500002,10.987,328075.8451001573,4689330.917855385,19.0,T,5
1645138570.2455962,306,0,0,,42.33724861000001,-71.08694922833332,10.977,328075.8481299913,4689330.918151391,19.0,T,5
1645138570.4502387,307,0,0,,42.337248655,-71.08694925,10.965,328075.8464676384,4689330.923192105,19.0,T,5
1645138570.6464097,308,0,0,,42.337248645,-71.08694921833334,10.965,328075.84904921264,4689330.922017654,19.0,T,5
1645138570.8515208,309,0,0,,42.33724861333333,-71.08694923666667,10.96,328075.8474525417,4689330.91853838,19.0,T,5
1645138571.04279,310,0,0,,42.337248645,-71.08694919999999,10.94,328075.8505595906,4689330.921980586,19.0,T,5
1645138571.2478244,311,0,0,,42.33724864166667,-71.08694921666667,10.926,328075.849177439,4689330.921644144,19.0,T,5
1645138571.4422147,312,0,0,,42.337248650000014,-71.08694917,10.921,328075.8530447371,4689330.922475142,19.0,T,5
1645138571.6520343,313,0,0,,42.33724861833333,-71.08694917999999,10.91,328075.8521345977,4689330.918979019,19.0,T,5
1645138571.846876,314,0,0,,42.337248721666676,-71.08694917166667,10.878,328075.85310273734,4689330.930436547,19.0,T,5
1645138572.044346,315,0,0,,42.33724877166666,-71.08694918500001,10.846,328075.8521405464,4689330.936015623,19.0,T,5
1645138572.250143,316,0,0,,42.33724873333334,-71.08694922833332,10.84,328075.848466104,4689330.931846615,19.0,T,5
1645138572.4433134,317,0,0,,42.337248705,-71.08694924333334,10.832,328075.8471531277,4689330.928730743,19.0,T,5
1645138572.6464863,318,0,0,,42.33724868166667,-71.08694924,10.834,328075.8473641515,4689330.926133015,19.0,T,5
1645138572.8512883,319,0,0,,42.33724868666667,-71.08694922333333,10.83,328075.8487508452,4689330.92665453,19.0,T,5
1645138573.0483809,320,0,0,,42.337248718333335,-71.08694921,10.82,328075.84993559925,4689330.930143912,19.0,T,5
1645138573.2464435,321,0,0,,42.33724868833333,-71.08694924333334,10.804,328075.84710770706,4689330.9268800365,19.0,T,5
1645138573.439726,322,0,0,,42.33724867166667,-71.08694927,10.791,328075.8448653768,4689330.925083249,19.0,T,5
1645138573.6467752,323,0,0,,42.33724866666667,-71.08694930333331,10.776,328075.8421056198,4689330.924595433,19.0,T,5
1645138573.8539867,324,0,0,,42.33724865333333,-71.08694927666667,10.775,328075.84426618874,4689330.923060952,19.0,T,5
1645138574.0466754,325,0,0,,42.33724866999999,-71.08694924333334,10.775,328075.8470577444,4689330.924844259,19.0,T,5
1645138574.2508616,326,0,0,,42.33724867666667,-71.08694921333334,10.768,328075.849547435,4689330.925523886,19.0,T,5
1645138574.4473767,327,0,0,,42.33724869833333,-71.08694925666667,10.757,328075.8460365046,4689330.928017418,19.0,T,5
1645138574.6509502,328,0,0,,42.33724871333334,-71.08694928,10.757,328075.8441550904,4689330.929730233,19.0,T,5
1645138574.8492038,329,0,0,,42.33724878666666,-71.08694922833332,10.76,328075.84861144994,4689330.937768874,19.0,T,5
1645138575.045234,330,0,0,,42.337248793333345,-71.08694922833332,10.755,328075.8486296183,4689330.938509158,19.0,T,5
1645138575.2535343,331,0,0,,42.33724882500001,-71.08694923666667,10.752,328075.8480293837,4689330.942042349,19.0,T,5
1645138575.4505374,332,0,0,,42.33724882,-71.08694926666666,10.751,328075.8455442373,4689330.941547793,19.0,T,5
1645138575.6464064,333,0,0,,42.33724883333333,-71.08694926833333,10.747,328075.8454432675,4689330.943031726,19.0,T,5
1645138575.8498852,334,0,0,,42.33724887666667,-71.08694937666668,10.72,328075.83663642034,4689330.9480626015,19.0,T,5
1645138576.0415072,335,0,0,,42.33724891166667,-71.08694945833334,10.706,328075.8300037725,4689330.952114207,19.0,T,5
1645138576.251815,336,0,0,,42.33724893833334,-71.08694947166667,10.705,328075.8289779907,4689330.955102296,19.0,T,5
1645138576.4457724,337,0,0,,42.337248946666655,-71.086949455,10.706,328075.8303737685,4689330.9559939485,19.0,T,5
1645138576.6537604,338,0,0,,42.33724897833334,-71.08694946666665,10.7,328075.8294989235,4689330.959533882,19.0,T,5
1645138576.8483727,339,0,0,,42.33724892,-71.08694954666666,10.692,328075.8227492264,4689330.95321816,19.0,T,5
1645138577.0408077,340,0,0,,42.33724891833334,-71.086949555,10.69,328075.8220581485,4689330.95304994,19.0,T,5
1645138577.2418218,341,0,0,,42.33724895499999,-71.08694957333333,10.694,328075.82064770005,4689330.95715856,19.0,T,5
1645138577.4496424,342,0,0,,42.337248960000004,-71.0869496,10.686,328075.81846441876,4689330.95776769,19.0,T,5
1645138577.6457453,343,0,0,,42.33724897333334,-71.08694963166666,10.687,328075.8158919287,4689330.9593122825,19.0,T,5
1645138577.851439,344,0,0,,42.33724900333334,-71.08694973833333,10.666,328075.8071860514,4689330.962859222,19.0,T,5
1645138578.0431833,345,0,0,,42.337249025,-71.08694973333331,10.662,328075.8076570214,4689330.9652550295,19.0,T,5
1645138578.253435,346,0,0,,42.337249025,-71.08694978499999,10.662,328075.80340051046,4689330.965359495,19.0,T,5
1645138578.44646,347,0,0,,42.337249095,-71.086949865,10.649,328075.79700055247,4689330.9732942125,19.0,T,5
1645138578.6502495,348,0,0,,42.337249135,-71.08694990666666,10.644,328075.7936768933,4689330.977820153,19.0,T,5
1645138578.855246,349,0,0,,42.33724914666667,-71.08695000333333,10.643,328075.7857448955,4689330.979311097,19.0,T,5
1645138579.0485604,350,0,0,,42.337249151666676,-71.08695010833333,10.639,328075.7771081978,4689330.98007861,19.0,T,5
1645138579.2498283,351,0,0,,42.33724913666667,-71.08695017000001,10.645,328075.77198696823,4689330.978537656,19.0,T,5
1645138579.4424624,352,0,0,,42.337249148333335,-71.086950305,10.627,328075.7608969164,4689330.980106106,19.0,T,5
1645138579.6437683,353,0,0,,42.337249148333335,-71.08695036166667,10.616,328075.75622848654,4689330.98022068,19.0,T,5
1645138579.8490543,354,0,0,,42.33724922166666,-71.08695042999999,10.585,328075.75079876115,4689330.988501949,19.0,T,5
1645138580.0445132,355,0,0,,42.33724909999999,-71.086950395,10.574,328075.75335063157,4689330.974921027,19.0,T,5
1645138580.2469363,356,0,0,,42.33724909166667,-71.08695055166666,10.57,328075.7404210865,4689330.974312441,19.0,T,5
1645138580.4459221,357,0,0,,42.337249095,-71.08695060166666,10.569,328075.7363109682,4689330.974783677,19.0,T,5
1645138580.647802,358,0,0,,42.33724911833333,-71.08695069166667,10.559,328075.7289599922,4689330.977556636,19.0,T,5
1645138580.8556976,359,0,0,,42.337249189999994,-71.08695069333332,10.584,328075.72901799687,4689330.985518041,19.0,T,5
1645138581.0404356,360,0,0,,42.33724925833333,-71.08695079666666,10.595,328075.720691202,4689330.993314865,19.0,T,5
1645138581.2480412,361,0,0,,42.33724932333333,-71.08695086333333,10.594,328075.71537607047,4689331.000667414,19.0,T,5
1645138581.4499407,362,0,0,,42.337249363333335,-71.08695094666668,10.587,328075.70861974277,4689331.005277599,19.0,T,5
1645138581.6447794,363,0,0,,42.337249414999995,-71.08695103000001,10.589,328075.7018952094,4689331.011183278,19.0,T,5
1645138581.8526182,364,0,0,,42.337249461666666,-71.086951185,10.593,328075.68925286096,4689331.01667865,19.0,T,5
1645138582.0412703,365,0,0,,42.337249475,-71.08695125833331,10.592,328075.6832477023,4689331.018307488,19.0,T,5
1645138582.2490404,366,0,0,,42.33724941833334,-71.08695128,10.6,328075.6813082813,4689331.012058897,19.0,T,5
1645138582.4438057,367,0,0,,42.33724950833333,-71.08695138333333,10.596,328075.6730405354,4689331.022261637,19.0,T,5
1645138582.649724,368,0,0,,42.337249553333336,-71.08695151333332,10.591,328075.6624532441,4689331.027521392,19.0,T,5
1645138582.8450444,369,0,0,,42.337249615000005,-71.08695167833334,10.571,328075.6490279322,4689331.034702618,19.0,T,5
1645138583.0499036,370,0,0,,42.337249663333324,-71.08695177499999,10.563,328075.64119586,4689331.040265113,19.0,T,5
1645138583.2520847,371,0,0,,42.33724968,-71.08695189333334,10.556,328075.63149250206,4689331.042355079,19.0,T,5
1645138583.4431727,372,0,0,,42.33724971833333,-71.086951965,10.556,328075.6256927807,4689331.046756606,19.0,T,5
1645138583.6501155,373,0,0,,42.33724972,-71.086952055,10.549,328075.61828275595,4689331.047123649,19.0,T,5
1645138583.8480084,374,0,0,,42.337249711666665,-71.08695215333333,10.555,328075.61015894706,4689331.046397115,19.0,T,5
1645138584.0443552,375,0,0,,42.33724971833333,-71.08695217500001,10.545,328075.60839212884,4689331.047181204,19.0,T,5
1645138584.2491693,376,0,0,,42.33724975,-71.0869522,10.545,328075.60641882697,4689331.050748095,19.0,T,5
1645138584.4501293,377,0,0,,42.33724976166667,-71.08695218833334,10.547,328075.60741176794,4689331.052019999,19.0,T,5
1645138584.6489947,378,0,0,,42.33724977499999,-71.08695219500001,10.543,328075.60689887695,4689331.053514042,19.0,T,5
1645138584.9511461,379,0,0,,42.33724974333333,-71.08695238333334,10.553,328075.5912969144,4689331.050378493,19.0,T,5
1645138585.1394565,380,0,0,,42.33724973666667,-71.08695251666666,10.56,328075.58029420837,4689331.049907798,19.0,T,5
1645138585.34208,381,0,0,,42.33724973666667,-71.08695253500001,10.57,328075.5787838325,4689331.0499448655,19.0,T,5
1645138585.5446432,382,0,0,,42.33724973333333,-71.08695259,10.58,328075.57424362696,4689331.049685928,19.0,T,5
1645138585.7450092,383,0,0,,42.337249725000014,-71.086952715,10.573,328075.56392291054,4689331.049013314,19.0,T,5
1645138585.960919,384,0,0,,42.33724975666667,-71.08695280333332,10.567,328075.5567319515,4689331.052708258,19.0,T,5
1645138586.0427744,385,0,0,,42.33724974,-71.08695275833333,10.569,328075.5603938141,4689331.050766564,19.0,T,5
1645138586.251743,386,0,0,,42.33724976166667,-71.08695282833334,10.568,328075.5546859744,4689331.053314015,19.0,T,5
1645138586.4468846,387,0,0,,42.33724976666667,-71.08695288833333,10.558,328075.5497565602,4689331.053990543,19.0,T,5
1645138586.6517203,388,0,0,,42.33724981333334,-71.086952955,10.557,328075.5443914683,4689331.059307312,19.0,T,5
1645138586.9597564,389,0,0,,42.33724977499999,-71.08695300999999,10.577,328075.53975587914,4689331.055161891,19.0,T,5
1645138587.1519752,390,0,0,,42.337249783333334,-71.08695310666667,10.584,328075.5318147953,4689331.056282696,19.0,T,5
1645138587.3471453,391,0,0,,42.33724978833334,-71.08695318333334,10.586,328075.52551231155,4689331.056992922,19.0,T,5
1645138587.5526676,392,0,0,,42.33724975,-71.08695331833333,10.591,328075.5142859977,4689331.053009252,19.0,T,5
1645138587.7351367,393,0,0,,42.33724974166667,-71.08695336833331,10.599,328075.5101440849,4689331.052184994,19.0,T,5
1645138587.95637,394,0,0,,42.33724979499999,-71.08695338999999,10.607,328075.50850444473,4689331.058151061,19.0,T,5
1645138588.138293,395,0,0,,42.33724981,-71.08695348333333,10.611,328075.5008561439,4689331.060005408,19.0,T,5
1645138588.3362608,396,0,0,,42.33724980499999,-71.08695358333331,10.621,328075.49260411283,4689331.059652384,19.0,T,5
1645138588.5449386,397,0,0,,42.33724981,-71.08695366333332,10.628,328075.4860270144,4689331.06036935,19.0,T,5
1645138588.7442327,398,0,0,,42.337249793333335,-71.08695373666666,10.638,328075.4799400985,4689331.058666916,19.0,T,5
1645138588.9504764,399,0,0,,42.33724983166666,-71.08695383333333,10.65,328075.4720807739,4689331.06311899,19.0,T,5
1645138589.1448388,400,0,0,,42.33724982833334,-71.08695392999999,10.662,328075.46410789766,4689331.0629443005,19.0,T,5
1645138589.339427,401,0,0,,42.337249824999994,-71.08695398666667,10.672,328075.45943038363,4689331.0626887325,19.0,T,5
1645138589.5473325,402,0,0,,42.33724986666666,-71.08695406833333,10.679,328075.4528159065,4689331.06748062,19.0,T,5
1645138589.7420058,403,0,0,,42.33724986166666,-71.08695414166667,10.693,328075.4467607809,4689331.067073681,19.0,T,5
1645138589.957234,404,0,0,,42.33724985333334,-71.08695417833333,10.702,328075.443717323,4689331.0662224665,19.0,T,5
1645138590.1351829,405,0,0,,42.337249830000005,-71.08695425666666,10.714,328075.43720031553,4689331.0637898585,19.0,T,5
1645138590.3452952,406,0,0,,42.33724983333334,-71.08695431666666,10.724,328075.43226635724,4689331.064281315,19.0,T,5
1645138590.5421703,407,0,0,,42.33724983333334,-71.08695439,10.731,328075.4262248599,4689331.064429587,19.0,T,5
1645138590.7419608,408,0,0,,42.33724981499999,-71.08695444500002,10.73,328075.42164377356,4689331.062505013,19.0,T,5
1645138590.949389,409,0,0,,42.33724982833334,-71.086954455,10.73,328075.4208562702,4689331.064005799,19.0,T,5
1645138591.1327734,410,0,0,,42.33724982666666,-71.08695450833333,10.752,328075.4164579129,4689331.063928561,19.0,T,5
1645138591.3476288,411,0,0,,42.33724984833334,-71.08695455833333,10.759,328075.4123977576,4689331.066435576,19.0,T,5
1645138591.5392838,412,0,0,,42.33724981166666,-71.086954645,10.77,328075.4051578797,4689331.062539252,19.0,T,5
1645138591.7433262,413,0,0,,42.33724982166666,-71.08695471,10.772,328075.3998301707,4689331.0637811,19.0,T,5
1645138591.9608684,414,0,0,,42.33724982833334,-71.08695476333334,10.78,328075.3954545219,4689331.064629219,19.0,T,5
1645138592.13891,415,0,0,,42.33724983666666,-71.08695482499999,10.788,328075.39039688336,4689331.065679253,19.0,T,5
1645138592.3408964,416,0,0,,42.33724981333334,-71.08695495833334,10.793,328075.3793487546,4689331.063357853,19.0,T,5
1645138592.5392323,417,0,0,,42.33724980833334,-71.08695496166666,10.8,328075.3790605136,4689331.062809381,19.0,T,5
1645138592.7337377,418,0,0,,42.33724977833334,-71.08695502666666,10.809,328075.37362379476,4689331.059609535,19.0,T,5
1645138592.9453807,419,0,0,,42.3372498,-71.086955075,10.818,328075.3697009435,4689331.062113177,19.0,T,5
1645138593.1400418,420,0,0,,42.337249824999994,-71.08695503000001,10.846,328075.37347635604,4689331.06479825,19.0,T,5
1645138593.2380483,421,0,0,,42.33724982666666,-71.08695501666665,10.849,328075.374579355,4689331.0649563605,19.0,T,5
1645138593.4450643,422,0,0,,42.33724986166666,-71.086955015,10.845,328075.3748120428,4689331.068839475,19.0,T,5
1645138593.6438138,423,0,0,,42.337249868333345,-71.08695498666665,10.846,328075.37716442713,4689331.069522472,19.0,T,5
1645138593.852959,424,0,0,,42.33724998166667,-71.086955035,10.86,328075.37349139224,4689331.0822049985,19.0,T,5
1645138594.0428698,425,0,0,,42.33725000999999,-71.08695501166667,10.862,328075.37549090234,4689331.085304019,19.0,T,5
1645138594.261273,426,0,0,,42.33725003333334,-71.08695498666665,10.874,328075.37761409266,4689331.087844462,19.0,T,5
1645138594.449803,427,0,0,,42.33725003833334,-71.086954935,10.875,328075.3818842276,4689331.088295208,19.0,T,5
1645138594.6493485,428,0,0,,42.33725006333334,-71.08695492000001,10.878,328075.38318812,4689331.09104094,19.0,T,5
1645138594.8510585,429,0,0,,42.33725008500001,-71.08695494333334,10.882,328075.381324872,4689331.093494035,19.0,T,5
1645138595.0498765,430,0,0,,42.33725012333333,-71.086954905,10.892,328075.38458739576,4689331.097673151,19.0,T,5
1645138595.2427275,431,0,0,,42.33725014666667,-71.08695485,10.903,328075.38918210624,4689331.100152936,19.0,T,5
1645138595.4489353,432,0,0,,42.33725019,-71.08695485333334,10.912,328075.38902558753,4689331.104971512,19.0,T,5
1645138595.6425102,433,0,0,,42.33725022,-71.08695476499999,10.931,328075.39638460544,4689331.108124183,19.0,T,5
1645138595.8401115,434,0,0,,42.33725022833334,-71.08695474333334,10.925,328075.3981923023,4689331.109005728,19.0,T,5
1645138596.0431585,435,0,0,,42.337250260000005,-71.08695469333333,10.94,328075.4023978041,4689331.112420974,19.0,T,5
1645138596.2429795,436,0,0,,42.33725031666666,-71.08695465,10.949,328075.4061222096,4689331.118625758,19.0,T,5
1645138596.454899,437,0,0,,42.33725035333333,-71.08695456833334,10.965,328075.4129501642,4689331.122532189,19.0,T,5
1645138596.652224,438,0,0,,42.33725038666667,-71.08695454166667,10.979,328075.41523791535,4689331.126179685,19.0,T,5
1645138596.8597505,439,0,0,,42.33725032666666,-71.08695452666667,10.988,328075.4163101617,4689331.119486814,19.0,T,5
1645138597.045545,440,0,0,,42.337250346666664,-71.08695439499999,11.023,328075.4272119,4689331.121441443,19.0,T,5
1645138597.2456567,441,0,0,,42.337250375,-71.08695434166665,11.046,328075.4316829303,4689331.12447981,19.0,T,5
1645138597.4502056,442,0,0,,42.33725043333334,-71.08695429500001,11.055,328075.4356864906,4689331.130862928,19.0,T,5
1645138597.6486328,443,0,0,,42.33725047166666,-71.08695425666666,11.066,328075.4389490143,4689331.1350420425,19.0,T,5
1645138597.8429563,444,0,0,,42.337250461666656,-71.08695424,11.064,328075.44029482926,4689331.13389792,19.0,T,5
1645138598.0506816,445,0,0,,42.33725049166666,-71.08695420333335,11.067,328075.4433973342,4689331.137155056,19.0,T,5
1645138598.244634,446,0,0,,42.337250526666665,-71.08695412833333,11.081,328075.4496715235,4689331.140889896,19.0,T,5
1645138598.4553502,447,0,0,,42.337250543333326,-71.08695412166666,11.083,328075.45026616944,4689331.142727123,19.0,T,5
1645138598.6498067,448,0,0,,42.33725058,-71.08695403166666,11.092,328075.457780662,4689331.146616707,19.0,T,5
1645138598.851323,449,0,0,,42.33725058,-71.08695404166666,11.109,328075.4569568198,4689331.146636926,19.0,T,5
1645138599.0479174,450,0,0,,42.337250581666666,-71.08695392,11.113,328075.4669847551,4689331.146575997,19.0,T,5
1645138599.2608392,451,0,0,,42.33725061166667,-71.08695384500001,11.11,328075.47324531607,4689331.149755625,19.0,T,5
1645138599.4520323,452,0,0,,42.337250618333336,-71.08695383166668,11.116,328075.4743619391,4689331.15046895,19.0,T,5
1645138599.6430192,453,0,0,,42.33725067,-71.08695375166667,11.119,328075.48109346593,4689331.156044387,19.0,T,5
1645138599.8495264,454,0,0,,42.337250700000006,-71.08695371833333,11.118,328075.4839213603,4689331.159308261,19.0,T,5
1645138600.042835,455,0,0,,42.33725072833332,-71.08695368999999,11.115,328075.4863327914,4689331.162397172,19.0,T,5
1645138600.25431,456,0,0,,42.33725072000001,-71.08695366666667,11.119,328075.48823237384,4689331.161424643,19.0,T,5
1645138600.453822,457,0,0,,42.33725072666666,-71.08695358666667,11.12,328075.4948412668,4689331.162003173,19.0,T,5
1645138600.6484408,458,0,0,,42.337250815,-71.08695364333332,11.124,328075.4904135669,4689331.171926489,19.0,T,5
1645138600.850807,459,0,0,,42.33725085999999,-71.08695362166667,11.132,328075.49232118926,4689331.1768795885,19.0,T,5
1645138601.047424,460,0,0,,42.33725085999999,-71.08695368000001,11.122,328075.4875154532,4689331.176997532,19.0,T,5
1645138601.2544997,461,0,0,,42.337250899999994,-71.08695369333334,11.12,328075.48652600823,4689331.181466185,19.0,T,5
1645138601.4543881,462,0,0,,42.33725092666666,-71.08695373166667,11.121,328075.48344062746,4689331.184504822,19.0,T,5
1645138601.652864,463,0,0,,42.33725094166666,-71.08695370166667,11.12,328075.4859530263,4689331.186109801,19.0,T,5
1645138601.845241,464,0,0,,42.33725097166666,-71.086953765,11.129,328075.48081712855,4689331.189569126,19.0,T,5
1645138602.1514354,465,0,0,,42.33725101666667,-71.08695355833335,11.135,328075.49796579924,4689331.194148172,19.0,T,5
1645138602.2461555,466,0,0,,42.33725104499999,-71.08695349999999,11.125,328075.5028487526,4689331.197176427,19.0,T,5
1645138602.452299,467,0,0,,42.33725106,-71.08695351833335,11.115,328075.50137925544,4689331.198879133,19.0,T,5
1645138602.6523435,468,0,0,,42.337251038333335,-71.08695340666667,11.117,328075.51051976165,4689331.196247435,19.0,T,5
1645138602.851353,469,0,0,,42.33725103,-71.08695337666666,11.107,328075.5129685735,4689331.195261424,19.0,T,5
1645138603.0485313,470,0,0,,42.33725107166667,-71.086953345,11.099,328075.51569095184,4689331.199824163,19.0,T,5
1645138603.2445312,471,0,0,,42.33725108,-71.08695334166667,11.085,328075.5159882748,4689331.200742777,19.0,T,5
1645138603.4430513,472,0,0,,42.337251106666656,-71.08695327333332,11.085,328075.52169052826,4689331.203565743,19.0,T,5
1645138603.6491518,473,0,0,,42.33725111666666,-71.08695324666665,11.081,328075.52391468815,4689331.204622249,19.0,T,5
1645138603.8495111,474,0,0,,42.33725114333334,-71.08695321833333,11.067,328075.5263215752,4689331.207526093,19.0,T,5
1645138604.0444448,475,0,0,,42.33725114666666,-71.08695319,11.06,328075.5286648731,4689331.207838946,19.0,T,5
1645138604.2515292,476,0,0,,42.33725112166666,-71.08695315500002,11.053,328075.5314801812,4689331.20499212,19.0,T,5
1645138604.4427872,477,0,0,,42.337251144999996,-71.08695314333333,11.046,328075.5325049208,4689331.207559519,19.0,T,5
1645138604.6482282,478,0,0,,42.33725113166666,-71.08695307500001,11.042,328075.5380981582,4689331.205940792,19.0,T,5
1645138604.8553784,479,0,0,,42.33725115166666,-71.08695307166666,11.048,328075.5384272799,4689331.2081549,19.0,T,5
1645138605.0466652,480,0,0,,42.33725117333333,-71.08695310499999,11.047,328075.53574019193,4689331.210628213,19.0,T,5
1645138605.251153,481,0,0,,42.337251171666665,-71.08695307166666,11.045,328075.5384817848,4689331.210375748,19.0,T,5
1645138605.439543,482,0,0,,42.33725121000001,-71.08695321833333,11.029,328075.5265032581,4689331.214928918,19.0,T,5
1645138605.646535,483,0,0,,42.337251225,-71.08695319666667,11.024,328075.52832912316,4689331.216550745,19.0,T,5
1645138605.8483167,484,0,0,,42.33725123833333,-71.08695320666668,11.022,328075.5275416197,4689331.218051529,19.0,T,5
1645138606.0437524,485,0,0,,42.33725123666667,-71.08695314666667,11.017,328075.53248011996,4689331.217745143,19.0,T,5
1645138606.2448988,486,0,0,,42.33725124666667,-71.08695308333334,11.005,328075.5377250296,4689331.218727513,19.0,T,5
1645138606.4529724,487,0,0,,42.33725124999999,-71.08695306666667,10.995,328075.53910718113,4689331.219063956,19.0,T,5
1645138606.64741,488,0,0,,42.33725122333333,-71.08695305666667,10.992,328075.5398583481,4689331.216082608,19.0,T,5
1645138606.8534043,489,0,0,,42.337251225,-71.08695293666666,11.003,328075.54974897695,4689331.216025051,19.0,T,5
1645138607.0411375,490,0,0,,42.33725124166667,-71.08695293333335,10.985,328075.55006901035,4689331.217869016,19.0,T,5
1645138607.272472,491,0,0,,42.33725128666667,-71.08695285666666,10.981,328075.5565077582,4689331.222710912,19.0,T,5
1645138607.4476635,492,0,0,,42.337251308333336,-71.08695282833334,10.971,328075.55890101683,4689331.225059543,19.0,T,5
1645138607.653126,493,0,0,,42.33725130333334,-71.08695279833333,10.958,328075.56135891285,4689331.224443674,19.0,T,5
1645138607.8493025,494,0,0,,42.33725127666667,-71.08695280666667,10.954,328075.56059970806,4689331.221499392,19.0,T,5
1645138608.0422676,495,0,0,,42.33725127166667,-71.08695277666668,10.951,328075.56305759994,4689331.220883523,19.0,T,5
1645138608.246922,496,0,0,,42.337251308333336,-71.086952695,10.945,328075.56988556054,4689331.224789956,19.0,T,5
1645138608.4418302,497,0,0,,42.33725130666667,-71.086952735,10.934,328075.56658565416,4689331.224685761,19.0,T,5
1645138608.6495323,498,0,0,,42.337251315,-71.08695265333334,10.922,328075.5733363954,4689331.225445994,19.0,T,5
1645138608.8512383,499,0,0,,42.33725133333334,-71.08695261,10.923,328075.5769563352,4689331.227394153,19.0,T,5
1645138609.0433054,500,0,0,,42.337251301666655,-71.08695243833334,10.914,328075.5910126292,4689331.223530718,19.0,T,5
1645138609.252139,501,0,0,,42.33725131999999,-71.08695239833334,10.903,328075.5943579521,4689331.22548562,19.0,T,5
1645138609.4450939,502,0,0,,42.337251325000004,-71.08695235166667,10.903,328075.5982161681,4689331.225946476,19.0,T,5
1645138609.6513164,503,0,0,,42.337251329999994,-71.08695232000001,10.89,328075.6008386228,4689331.22643766,19.0,T,5
1645138609.8509982,504,0,0,,42.33725134833334,-71.08695225,10.886,328075.6066554701,4689331.228331906,19.0,T,5
1645138610.0445113,505,0,0,,42.33725133333334,-71.08695218333334,10.886,328075.61210685916,4689331.226531477,19.0,T,5
1645138610.2446094,506,0,0,,42.33725134666666,-71.08695214166667,10.876,328075.61557586637,4689331.227927795,19.0,T,5
1645138610.452346,507,0,0,,42.33725138,-71.08695209166667,10.867,328075.61978591006,4689331.231528112,19.0,T,5
1645138610.641355,508,0,0,,42.33725140833333,-71.08695203833334,10.868,328075.62425694027,4689331.234566478,19.0,T,5
1645138610.8554342,509,0,0,,42.33725136666666,-71.08695198833334,10.867,328075.62826259085,4689331.229838618,19.0,T,5
1645138611.052709,510,0,0,,42.33725140666667,-71.08695192666667,10.857,328075.6334519513,4689331.234155628,19.0,T,5
1645138611.2441938,511,0,0,,42.33725142500001,-71.08695189166666,10.86,328075.6363853553,4689331.236120641,19.0,T,5
1645138611.4472558,512,0,0,,42.337251441666666,-71.08695187166666,10.85,328075.63807845814,4689331.237930907,19.0,T,5
1645138611.6505344,513,0,0,,42.337251450000004,-71.08695176333333,10.848,328075.64702610683,4689331.238637222,19.0,T,5
1645138611.8508856,514,0,0,,42.33725145666667,-71.08695174500001,10.843,328075.64855464885,4689331.239340437,19.0,T,5
