Time,header.seq,header.stamp.secs,header.stamp.nsecs,header.frame_id,latitude.data,longitude.data,altitude.data,utm_easting.data,utm_northing.data,zone_num.data,zone_letter.data,fix_quality.data
1645384986.327642,1733,0,0,,42.339176391666655,-71.08431583166666,4.834,328298.0451260506,4689539.66249443,19.0,T,4
1645384986.5348718,1734,0,0,,42.339176398333336,-71.08431585333334,4.847,328298.04335926287,4689539.663278467,19.0,T,4
1645384986.7250335,1735,0,0,,42.339176376666664,-71.08431581500001,4.849,328298.0464582474,4689539.660795139,19.0,T,4
1645384986.9253008,1736,0,0,,42.33917629833333,-71.08431586833335,4.85,328298.0418513479,4689539.652204519,19.0,T,4
1645384987.1233518,1737,0,0,,42.33917627000001,-71.08431588,4.855,328298.0408131127,4689539.649081878,19.0,T,4
1645384987.3312423,1738,0,0,,42.33917630833333,-71.08431590166666,4.849,328298.03913252044,4689539.653382256,19.0,T,4
1645384987.5445995,1739,0,0,,42.33917629500001,-71.08431593666667,4.853,328298.03621287376,4689539.651972367,19.0,T,4
1645384987.7186284,1740,0,0,,42.33917626166667,-71.08431596000001,4.857,328298.034199908,4689539.648318074,19.0,T,4
1645384987.922533,1741,0,0,,42.33917632833333,-71.0843159,4.837,328298.03932425845,4689539.655599737,19.0,T,4
1645384988.1202765,1742,0,0,,42.339176353333336,-71.08431592166666,4.837,328298.0376073743,4689539.6584195485,19.0,T,4
1645384988.3346803,1743,0,0,,42.33917635166668,-71.08431593833333,4.829,328298.03622981254,4689539.658268135,19.0,T,4
1645384988.524216,1744,0,0,,42.33917637,-71.08431591166666,4.832,328298.038476554,4689539.660250062,19.0,T,4
1645384988.7157712,1745,0,0,,42.339176355,-71.08431589666667,4.834,328298.0396714487,4689539.658554135,19.0,T,4
1645384988.9200208,1746,0,0,,42.33917628999999,-71.08431592166666,4.841,328298.0374349874,4689539.6513868645,19.0,T,4
1645384989.1182158,1747,0,0,,42.33917630333333,-71.08431592166666,4.836,328298.0374712794,4689539.652867431,19.0,T,4
1645384989.3201306,1748,0,0,,42.33917633666667,-71.08431594833336,4.831,328298.03536516713,4689539.656622691,19.0,T,4
1645384989.5248013,1749,0,0,,42.339176333333334,-71.08431593,4.83,328298.0368664237,4689539.65621553,19.0,T,4
1645384989.7164855,1750,0,0,,42.339176333333334,-71.08431593333331,4.832,328298.03659181943,4689539.6562222615,19.0,T,4
1645384989.9207702,1751,0,0,,42.33917629999999,-71.08431594000001,4.838,328298.0359518769,4689539.65253431,19.0,T,4
1645384990.1339607,1752,0,0,,42.33917630833333,-71.08431593499999,4.837,328298.0363864699,4689539.653449567,19.0,T,4
1645384990.3211594,1753,0,0,,42.339176339999995,-71.08431592333334,4.834,328298.03743377805,4689539.65694235,19.0,T,4
1645384990.5253844,1754,0,0,,42.33917635833333,-71.084315925,4.829,328298.0373463774,4689539.658981493,19.0,T,4
1645384990.725079,1755,0,0,,42.33917632666667,-71.08431592000001,4.834,328298.0376720903,4689539.655455054,19.0,T,4
1645384990.9248362,1756,0,0,,42.33917631999999,-71.084315925,4.84,328298.037242038,4689539.654724867,19.0,T,4
1645384991.1172724,1757,0,0,,42.33917633666667,-71.08431597,4.826,328298.03358023555,4689539.656666444,19.0,T,4
1645384991.3219235,1758,0,0,,42.339176353333336,-71.084315955,4.82,328298.0348613238,4689539.658486861,19.0,T,4
1645384991.5200222,1759,0,0,,42.339176325,-71.08431595833333,4.825,328298.0345095969,4689539.655347391,19.0,T,4
1645384991.7175663,1760,0,0,,42.339176314999996,-71.08431598333334,4.824,328298.03242284,4689539.654287452,19.0,T,4
1645384991.9224627,1761,0,0,,42.339176335,-71.08431598333334,4.819,328298.03247727803,4689539.6565082995,19.0,T,4
1645384992.1357412,1762,0,0,,42.33917632833333,-71.08431599166667,4.818,328298.03177261935,4689539.6557848435,19.0,T,4
1645384992.328356,1763,0,0,,42.33917633666667,-71.08431596333334,4.812,328298.034129446,4689539.656652981,19.0,T,4
1645384992.5304525,1764,0,0,,42.33917637166665,-71.08431596833333,4.81,328298.0338128061,4689539.6605495615,19.0,T,4
1645384992.721915,1765,0,0,,42.339176349999995,-71.08431597166667,4.812,328298.0334792233,4689539.658150376,19.0,T,4
1645384992.9202712,1766,0,0,,42.339176333333334,-71.08431596333334,4.822,328298.0341203731,4689539.656282842,19.0,T,4
1645384993.1242285,1767,0,0,,42.339176339999995,-71.08431596166666,4.824,328298.0342758212,4689539.657019759,19.0,T,4
1645384993.327374,1768,0,0,,42.339176339999995,-71.08431598166666,4.82,328298.03262819164,4689539.657060145,19.0,T,4
1645384993.5320563,1769,0,0,,42.339176339999995,-71.084315975,4.819,328298.0331774001,4689539.657046683,19.0,T,4
1645384993.72326,1770,0,0,,42.339176386666665,-71.08431596333334,4.817,328298.03426554095,4689539.662205102,19.0,T,4
1645384993.9170852,1771,0,0,,42.33917639333334,-71.08431596000001,4.812,328298.0345582912,4689539.662938653,19.0,T,4
1645384994.132221,1772,0,0,,42.339176375,-71.08431595666667,4.817,328298.03478299396,4689539.660896145,19.0,T,4
1645384994.318556,1773,0,0,,42.339176376666664,-71.08431596166666,4.815,328298.0343756241,4689539.661091311,19.0,T,4
1645384994.5180552,1774,0,0,,42.339176401666656,-71.08431594833336,4.812,328298.0355420904,4689539.663840446,19.0,T,4
1645384994.7178497,1775,0,0,,42.33917636666667,-71.08431595166667,4.815,328298.0351722199,4689539.659960696,19.0,T,4
1645384994.9201124,1776,0,0,,42.3391764,-71.08431591833333,4.806,328298.03800900246,4689539.663594795,19.0,T,4
1645384995.1248622,1777,0,0,,42.339176401666656,-71.08431595833333,4.804,328298.03471827565,4689539.663860639,19.0,T,4
1645384995.311637,1778,0,0,,42.33917641833334,-71.08431591,4.804,328298.03874541447,4689539.665613744,19.0,T,4
1645384995.534482,1779,0,0,,42.33917644166666,-71.08431591,4.798,328298.0388089254,4689539.668204733,19.0,T,4
1645384995.7162967,1780,0,0,,42.33917644166666,-71.08431593666667,4.798,328298.0366120853,4689539.668258583,19.0,T,4
1645384995.919903,1781,0,0,,42.33917652333333,-71.08431581500001,4.787,328298.046857459,4689539.677081356,19.0,T,4
1645384996.134808,1782,0,0,,42.33917655333333,-71.0843158,4.782,328298.0481748391,4689539.6803823365,19.0,T,4
1645384996.3285103,1783,0,0,,42.33917652333333,-71.08431580666667,4.792,328298.0475439717,4689539.677064528,19.0,T,4
1645384996.5279768,1784,0,0,,42.339176531666666,-71.08431581833332,4.79,328298.04660553724,4689539.67801344,19.0,T,4
1645384996.7251375,1785,0,0,,42.33917656,-71.08431581333333,4.787,328298.047094564,4689539.681149544,19.0,T,4
1645384996.927114,1786,0,0,,42.339176448333326,-71.08431590333333,4.809,328298.0393762819,4689539.668931554,19.0,T,4
1645384997.1262472,1787,0,0,,42.33917645500001,-71.0843159,4.811,328298.0396690321,4689539.669665105,19.0,T,4
1645384997.3176527,1788,0,0,,42.339176470000005,-71.08431589833333,4.803,328298.0398471647,4689539.671327376,19.0,T,4
1645384997.5191152,1789,0,0,,42.33917645166666,-71.084315885,4.809,328298.0408956844,4689539.669264672,19.0,T,4
1645384997.7191067,1790,0,0,,42.33917646666667,-71.08431588333333,4.808,328298.04107381497,4689539.670926944,19.0,T,4
1645384997.9272118,1791,0,0,,42.33917645166666,-71.08431589333334,4.814,328298.0402091696,4689539.6692815,19.0,T,4
1645384998.132962,1792,0,0,,42.33917644666667,-71.08431595833333,4.803,328298.0348407611,4689539.668857548,19.0,T,4
1645384998.3323433,1793,0,0,,42.33917646500001,-71.0843159,4.794,328298.03969625104,4689539.67077553,19.0,T,4
1645384998.531292,1794,0,0,,42.33917650000001,-71.08431588833335,4.787,328298.04075263435,4689539.674638454,19.0,T,4
1645384998.727156,1795,0,0,,42.33917651333333,-71.08431589166666,4.788,328298.040514322,4689539.676125749,19.0,T,4
1645384998.919365,1796,0,0,,42.33917651833333,-71.08431590333333,4.786,328298.03956681467,4689539.676704521,19.0,T,4
1645384999.124296,1797,0,0,,42.33917647666667,-71.08431585833333,4.798,328298.04316057183,4689539.671986885,19.0,T,4
1645384999.3234477,1798,0,0,,42.33917647833333,-71.08431585500001,4.796,328298.04343971045,4689539.6721652225,19.0,T,4
1645384999.525537,1799,0,0,,42.33917648166666,-71.08431588333333,4.796,328298.0411146434,4689539.67259258,19.0,T,4
1645384999.7193542,1800,0,0,,42.33917649499999,-71.08431589,4.796,328298.04060172266,4689539.674086606,19.0,T,4
1645384999.9222794,1801,0,0,,42.339176501666664,-71.08431590333333,4.791,328298.0395214497,4689539.674853813,19.0,T,4
1645385000.1208198,1802,0,0,,42.33917646500001,-71.08431589833333,4.797,328298.0398335553,4689539.670772164,19.0,T,4
1645385000.3273516,1803,0,0,,42.33917646666667,-71.08431591666667,4.798,328298.03832776437,4689539.670994256,19.0,T,4
1645385000.5274484,1804,0,0,,42.339176473333325,-71.08431593499999,4.795,328298.0368355829,4689539.671771559,19.0,T,4
1645385000.7234862,1805,0,0,,42.339176470000005,-71.08431592166666,4.8,328298.03792492894,4689539.671374494,19.0,T,4
1645385000.9220173,1806,0,0,,42.33917646500001,-71.084315925,4.803,328298.0376367131,4689539.670826014,19.0,T,4
1645385001.1276293,1807,0,0,,42.33917648500001,-71.08431594833336,4.799,328298.0357689153,4689539.673093978,19.0,T,4
1645385001.3196704,1808,0,0,,42.339176480000006,-71.08431595,4.795,328298.0356180058,4689539.672542133,19.0,T,4
1645385001.5290148,1809,0,0,,42.339176460000004,-71.08431596333334,4.801,328298.03446514683,4689539.67034821,19.0,T,4
1645385001.7189007,1810,0,0,,42.33917648500001,-71.08431598166666,4.798,328298.0330228668,4689539.673161291,19.0,T,4
1645385001.9276736,1811,0,0,,42.339176450000004,-71.08431595833333,4.813,328298.0348498341,4689539.6692276895,19.0,T,4
1645385002.1210907,1812,0,0,,42.33917644500001,-71.08431596166666,4.816,328298.03456162044,4689539.668679209,19.0,T,4
1645385002.3166444,1813,0,0,,42.33917645833333,-71.08431597,4.813,328298.03391139966,4689539.670176601,19.0,T,4
1645385002.5188432,1814,0,0,,42.33917645500001,-71.08431595333332,4.817,328298.0352753541,4689539.669772804,19.0,T,4
1645385002.7271886,1815,0,0,,42.339176460000004,-71.08431596666665,4.813,328298.03419054253,4689539.670354941,19.0,T,4
1645385002.9181461,1816,0,0,,42.339176448333326,-71.084315975,4.817,328298.03347227233,4689539.669076273,19.0,T,4
1645385003.1242445,1817,0,0,,42.33917640666667,-71.08431599166667,4.825,328298.0319858347,4689539.664483164,19.0,T,4
1645385003.3146088,1818,0,0,,42.33917641666667,-71.08431598833333,4.828,328298.03228765994,4689539.665586857,19.0,T,4
1645385003.5240972,1819,0,0,,42.33917641166666,-71.08431597833334,4.828,328298.0330978652,4689539.665011452,19.0,T,4
1645385003.7169466,1820,0,0,,42.33917640833334,-71.08431603166667,4.825,328298.02869511215,4689539.6647490105,19.0,T,4
1645385003.9195726,1821,0,0,,42.33917644333332,-71.084316015,4.823,328298.03016340383,4689539.668601835,19.0,T,4
1645385004.1310892,1822,0,0,,42.339176435000006,-71.08431598000001,4.825,328298.0330240741,4689539.667605807,19.0,T,4
1645385004.3292017,1823,0,0,,42.33917644333332,-71.08431599000001,4.825,328298.03222293966,4689539.668551352,19.0,T,4
1645385004.5285249,1824,0,0,,42.33917643666667,-71.08431599166667,4.826,328298.0320674916,4689539.667814437,19.0,T,4
1645385004.72799,1825,0,0,,42.33917645166666,-71.08431598166666,4.821,328298.0329321369,4689539.669459878,19.0,T,4
1645385004.9190173,1826,0,0,,42.339176470000005,-71.08431596833333,4.823,328298.0340804594,4689539.67146873,19.0,T,4
1645385005.124316,1827,0,0,,42.33917643833334,-71.08431599166667,4.829,328298.0320720281,4689539.667999507,19.0,T,4
1645385005.3244665,1828,0,0,,42.339176425000005,-71.08431596000001,4.833,328298.03464448464,4689539.666454995,19.0,T,4
1645385005.5317044,1829,0,0,,42.339176450000004,-71.08431596833333,4.827,328298.0340260215,4689539.669247883,19.0,T,4
1645385005.7231631,1830,0,0,,42.33917644166666,-71.084315975,4.827,328298.03345412633,4689539.668335991,19.0,T,4
1645385005.9242115,1831,0,0,,42.33917645666667,-71.08431596333334,4.827,328298.0344560738,4689539.669978069,19.0,T,4
1645385006.1224432,1832,0,0,,42.339176425000005,-71.08431603166667,4.817,328298.02874047717,4689539.666599715,19.0,T,4
1645385006.3251078,1833,0,0,,42.33917641,-71.08431605833333,4.819,328298.0265028065,4689539.66498793,19.0,T,4
1645385006.517094,1834,0,0,,42.33917641833334,-71.08431604833333,4.818,328298.02734930586,4689539.665893089,19.0,T,4
1645385006.7308505,1835,0,0,,42.33917641333334,-71.08431604166667,4.816,328298.0278849048,4689539.665324415,19.0,T,4
1645385006.9163277,1836,0,0,,42.339176405,-71.08431602499999,4.817,328298.02923524764,4689539.664365406,19.0,T,4
1645385007.118072,1837,0,0,,42.33917641166666,-71.08431600499999,4.815,328298.03090102517,4689539.665065301,19.0,T,4
1645385007.3194907,1838,0,0,,42.33917641166666,-71.084316015,4.814,328298.0300772104,4689539.665085494,19.0,T,4
1645385007.5368726,1839,0,0,,42.339176415000004,-71.08431599833334,4.814,328298.0314593087,4689539.66542198,19.0,T,4
1645385007.7182946,1840,0,0,,42.339176415000004,-71.08431599833334,4.813,328298.0314593087,4689539.66542198,19.0,T,4
1645385007.9258914,1841,0,0,,42.339176395,-71.08431602166667,4.818,328298.029482635,4689539.66324825,19.0,T,4
1645385008.141399,1842,0,0,,42.339176401666656,-71.08431599000001,4.816,328298.0321095272,4689539.663924586,19.0,T,4
1645385008.3311512,1843,0,0,,42.33917641166666,-71.08431600666665,4.812,328298.030763723,4689539.6650686655,19.0,T,4
1645385008.5245297,1844,0,0,,42.33917641833334,-71.08431601000001,4.811,328298.03050726274,4689539.665815679,19.0,T,4
1645385008.7305713,1845,0,0,,42.33917642333334,-71.08431600166666,4.814,328298.031207387,4689539.666354065,19.0,T,4
1645385008.9257445,1846,0,0,,42.339176395,-71.08431603833333,4.815,328298.0281096097,4689539.663281906,19.0,T,4
1645385009.1321099,1847,0,0,,42.33917638,-71.084316035,4.814,328298.02834338543,4689539.661609541,19.0,T,4
1645385009.3260844,1848,0,0,,42.339176401666656,-71.08431603000001,4.814,328298.02881426824,4689539.66400536,19.0,T,4
1645385009.5276966,1849,0,0,,42.339176388333335,-71.08431601333332,4.815,328298.0301510016,4689539.66249114,19.0,T,4
1645385009.7180748,1850,0,0,,42.339176375,-71.08431602000002,4.817,328298.029565497,4689539.661024038,19.0,T,4
1645385009.9312966,1851,0,0,,42.339176386666665,-71.084316035,4.812,328298.0283615314,4689539.662349822,19.0,T,4
1645385010.1289058,1852,0,0,,42.33917641666667,-71.08431599666667,4.806,328298.0316011473,4689539.665603684,19.0,T,4
1645385010.3323522,1853,0,0,,42.33917641333334,-71.08431599666667,4.807,328298.0315920743,4689539.665233544,19.0,T,4
1645385010.5316722,1854,0,0,,42.339176388333335,-71.08431599333332,4.815,328298.03179863107,4689539.662450753,19.0,T,4
1645385010.7318325,1855,0,0,,42.33917639333334,-71.08431599833334,4.813,328298.03140033426,4689539.663016062,19.0,T,4
1645385010.9196944,1856,0,0,,42.339176398333336,-71.08431600499999,4.807,328298.0308647333,4689539.663584737,19.0,T,4
1645385011.1308007,1857,0,0,,42.339176396666666,-71.08431597666667,4.805,328298.03319433884,4689539.66334245,19.0,T,4
1645385011.3249173,1858,0,0,,42.33917641666667,-71.08431598166666,4.806,328298.0328368705,4689539.665573394,19.0,T,4
1645385011.54212,1859,0,0,,42.33917642166666,-71.08431600166666,4.808,328298.0312028505,4689539.666168993,19.0,T,4
1645385011.7240627,1860,0,0,,42.33917641,-71.08431599833334,4.809,328298.0314456993,4689539.664866769,19.0,T,4
1645385011.929227,1861,0,0,,42.339176398333336,-71.08431597333332,4.805,328298.0334734817,4689539.66352079,19.0,T,4
1645385012.1264517,1862,0,0,,42.33917641,-71.08431596166666,4.807,328298.03446635406,4689539.664792726,19.0,T,4
1645385012.3310685,1863,0,0,,42.339176396666666,-71.08431595666667,4.81,328298.0348419683,4689539.663302063,19.0,T,4
1645385012.5292046,1864,0,0,,42.3391764,-71.084315975,4.805,328298.03334071394,4689539.663709225,19.0,T,4
1645385012.7312317,1865,0,0,,42.339176405,-71.08431598000001,4.808,328298.03294241714,4689539.664274536,19.0,T,4
1645385012.924975,1866,0,0,,42.339176401666656,-71.08431601166667,4.803,328298.03032459563,4689539.663968338,19.0,T,4
1645385013.124797,1867,0,0,,42.339176396666666,-71.08431600333334,4.801,328298.03099749674,4689539.6633963,19.0,T,4
1645385013.3164415,1868,0,0,,42.339176395,-71.08431599166667,4.805,328298.03195407917,4689539.66318767,19.0,T,4
1645385013.5213053,1869,0,0,,42.33917640333334,-71.08431603333332,4.804,328298.0285442005,4689539.664197165,19.0,T,4
1645385013.7255557,1870,0,0,,42.33917641833334,-71.08431602333334,4.804,328298.0294088417,4689539.665842605,19.0,T,4
1645385013.9283962,1871,0,0,,42.33917642333334,-71.08431602833333,4.803,328298.0290105449,4689539.666407914,19.0,T,4
1645385014.1318886,1872,0,0,,42.3391764,-71.08431599666667,4.802,328298.0315557823,4689539.663752979,19.0,T,4
1645385014.3232217,1873,0,0,,42.339176396666666,-71.08431602000002,4.805,328298.02962447144,4689539.663429955,19.0,T,4
1645385014.5289168,1874,0,0,,42.33917641666667,-71.08431602333334,4.797,328298.0294043052,4689539.665657534,19.0,T,4
1645385014.719123,1875,0,0,,42.33917641833334,-71.084316015,4.798,328298.0300953564,4689539.665825777,19.0,T,4
1645385014.92751,1876,0,0,,42.33917638333334,-71.08431601166667,4.801,328298.0302746942,4689539.6619325625,19.0,T,4
1645385015.129112,1877,0,0,,42.339176405,-71.08431601166667,4.8,328298.0303336687,4689539.664338482,19.0,T,4
1645385015.3240244,1878,0,0,,42.33917641833334,-71.08431601000001,4.799,328298.03050726274,4689539.665815679,19.0,T,4
1645385015.5250096,1879,0,0,,42.33917641333334,-71.08431599833334,4.8,328298.0314547722,4689539.665236911,19.0,T,4
1645385015.7291594,1880,0,0,,42.3391764,-71.08431599666667,4.802,328298.0315557823,4689539.663752979,19.0,T,4
1645385015.9228804,1881,0,0,,42.33917635833333,-71.08431599166667,4.813,328298.0318542763,4689539.659116116,19.0,T,4
1645385016.1377907,1882,0,0,,42.33917635833333,-71.08431599333332,4.809,328298.0317169742,4689539.659119481,19.0,T,4
1645385016.3207688,1883,0,0,,42.339176391666655,-71.08431597166667,4.805,328298.03359263565,4689539.662777141,19.0,T,4
1645385016.5341742,1884,0,0,,42.33917638,-71.084315995,4.805,328298.0316386465,4689539.661528766,19.0,T,4
1645385016.727457,1885,0,0,,42.33917639333334,-71.08431599833334,4.804,328298.03140033426,4689539.663016062,19.0,T,4
1645385016.9244332,1886,0,0,,42.339176405,-71.08431597666667,4.806,328298.0332170214,4689539.6642678045,19.0,T,4
1645385017.129371,1887,0,0,,42.339176376666664,-71.08431595166667,4.815,328298.0351994388,4689539.661071118,19.0,T,4
1645385017.32637,1888,0,0,,42.339176385,-71.08431596666665,4.815,328298.03398640023,4689539.662026762,19.0,T,4
1645385017.5226653,1889,0,0,,42.339176388333335,-71.08431596000001,4.815,328298.03454468166,4689539.662383441,19.0,T,4
1645385017.7310808,1890,0,0,,42.339176415000004,-71.084315955,4.812,328298.03502917406,4689539.665334475,19.0,T,4
1645385017.9197664,1891,0,0,,42.33917636333334,-71.08431599166667,4.811,328298.0318678858,4689539.659671328,19.0,T,4
1645385018.130844,1892,0,0,,42.339176376666664,-71.08431598666665,4.808,328298.0323160882,4689539.661141796,19.0,T,4
1645385018.3248067,1893,0,0,,42.339176378333335,-71.08431598666665,4.806,328298.0323206248,4689539.661326867,19.0,T,4
1645385018.5357258,1894,0,0,,42.33917640833334,-71.08431597333332,4.804,328298.03350070067,4689539.664631214,19.0,T,4
1645385018.7308657,1895,0,0,,42.33917641166666,-71.08431598000001,4.805,328298.0329605631,4689539.665014816,19.0,T,4
1645385018.9301836,1896,0,0,,42.339176368333334,-71.08431593333331,4.814,328298.03668708587,4689539.660108743,19.0,T,4
1645385019.128838,1897,0,0,,42.339176385,-71.08431594000001,4.81,328298.03618323815,4689539.661972913,19.0,T,4
1645385019.3246162,1898,0,0,,42.33917641166666,-71.08431597,4.803,328298.0337843778,4689539.664994623,19.0,T,4
1645385019.516945,1899,0,0,,42.339176415000004,-71.08431593499999,4.808,328298.0366768057,4689539.665294088,19.0,T,4
1645385019.7178035,1900,0,0,,42.33917641,-71.08431596833333,4.807,328298.03391714557,4689539.664806188,19.0,T,4
1645385019.9269063,1901,0,0,,42.33917640666667,-71.084315975,4.803,328298.03335885995,4689539.664449508,19.0,T,4
1645385020.127069,1902,0,0,,42.33917641666667,-71.084315965,4.802,328298.03420989576,4689539.665539739,19.0,T,4
1645385020.3182914,1903,0,0,,42.33917640666667,-71.08431595666667,4.808,328298.03486918734,4689539.664412486,19.0,T,4
1645385020.519248,1904,0,0,,42.339176405,-71.08431597,4.807,328298.0337662319,4689539.664254342,19.0,T,4
1645385020.7207081,1905,0,0,,42.33917639333334,-71.08431596333334,4.812,328298.03428368695,4689539.662945385,19.0,T,4
1645385020.9201488,1906,0,0,,42.33917641833334,-71.08431596666665,4.804,328298.03407713014,4689539.665728175,19.0,T,4
1645385021.122504,1907,0,0,,42.33917638,-71.084315955,4.807,328298.0349339076,4689539.661447992,19.0,T,4
1645385021.3245718,1908,0,0,,42.339176388333335,-71.08431597666667,4.807,328298.03317165637,4689539.662417097,19.0,T,4
1645385021.5187078,1909,0,0,,42.33917638333334,-71.08431594833336,4.809,328298.035492189,4689539.66180467,19.0,T,4
1645385021.7161167,1910,0,0,,42.33917640833334,-71.08431597333332,4.807,328298.03350070067,4689539.664631214,19.0,T,4
1645385021.9197328,1911,0,0,,42.339176435000006,-71.08431597666667,4.802,328298.0332986783,4689539.6675990755,19.0,T,4
1645385022.1324532,1912,0,0,,42.33917641666667,-71.08431596166666,4.802,328298.03448450007,4689539.665533008,19.0,T,4
1645385022.3252501,1913,0,0,,42.339176435000006,-71.084315945,4.803,328298.03590742673,4689539.66753513,19.0,T,4
1645385022.5309029,1914,0,0,,42.33917645500001,-71.08431598666665,4.794,328298.0325293036,4689539.669840116,19.0,T,4
1645385022.7201264,1915,0,0,,42.33917644500001,-71.08431595166667,4.798,328298.03538543516,4689539.668659016,19.0,T,4
1645385022.9260504,1916,0,0,,42.339176396666666,-71.08431594333334,4.803,328298.03594038944,4689539.6632751385,19.0,T,4
1645385023.1256409,1917,0,0,,42.33917641,-71.08431592833335,4.801,328298.03721240454,4689539.664725414,19.0,T,4
1645385023.312857,1918,0,0,,42.33917642333334,-71.08431594000001,4.805,328298.0362875776,4689539.666229538,19.0,T,4
1645385023.5156426,1919,0,0,,42.33917645666667,-71.08431598833333,4.796,328298.03239653585,4689539.670028552,19.0,T,4
1645385023.7208982,1920,0,0,,42.33917641,-71.08431598000001,4.803,328298.0329560266,4689539.664829747,19.0,T,4
1645385023.9327457,1921,0,0,,42.33917642666667,-71.084315995,4.795,328298.0317656684,4689539.666710745,19.0,T,4
1645385024.1226592,1922,0,0,,42.33917644666667,-71.08431597,4.797,328298.03387964424,4689539.668881107,19.0,T,4
1645385024.3304236,1923,0,0,,42.33917642333334,-71.08431597666667,4.798,328298.0332669228,4689539.666303581,19.0,T,4
1645385024.5177195,1924,0,0,,42.339176460000004,-71.084315985,4.802,328298.0326802131,4689539.670391963,19.0,T,4
1645385024.7275453,1925,0,0,,42.339176470000005,-71.08431600833333,4.794,328298.0307851962,4689539.671549505,19.0,T,4
1645385024.923093,1926,0,0,,42.33917646500001,-71.08431598666665,4.794,328298.0325565226,4689539.67095054,19.0,T,4
1645385025.1314573,1927,0,0,,42.33917646833333,-71.08431597166667,4.796,328298.03380131454,4689539.671290391,19.0,T,4
1645385025.3274639,1928,0,0,,42.339176463333324,-71.084315975,4.796,328298.03351310076,4689539.670741909,19.0,T,4
1645385025.542523,1929,0,0,,42.33917646500001,-71.08431597333332,4.797,328298.0336549415,4689539.670923616,19.0,T,4
1645385025.7243536,1930,0,0,,42.33917648666667,-71.08431600000002,4.794,328298.0315170738,4689539.673383383,19.0,T,4
1645385025.9219666,1931,0,0,,42.33917642666667,-71.08431601666668,4.8,328298.0299807347,4689539.666754496,19.0,T,4
1645385026.141022,1932,0,0,,42.33917641666667,-71.08431600666665,4.803,328298.0307773326,4689539.665623879,19.0,T,4
1645385026.3222706,1933,0,0,,42.33917642166666,-71.08431602000002,4.804,328298.0296925189,4689539.666206015,19.0,T,4
1645385026.5300174,1934,0,0,,42.33917644,-71.08431601000001,4.805,328298.03056623717,4689539.668221599,19.0,T,4
1645385026.7284148,1935,0,0,,42.33917644,-71.08431604166667,4.801,328298.0279574888,4689539.668285545,19.0,T,4
1645385026.9282997,1936,0,0,,42.33917648166666,-71.08431596833333,4.793,328298.0341122148,4689539.672764225,19.0,T,4
1645385027.125938,1937,0,0,,42.33917648666667,-71.08431594833336,4.794,328298.0357734518,4689539.673279051,19.0,T,4
1645385027.3206675,1938,0,0,,42.33917646166666,-71.08431595666667,4.795,328298.0350188917,4689539.670519817,19.0,T,4
1645385027.5155816,1939,0,0,,42.339176425000005,-71.08431596666665,4.797,328298.03409527615,4689539.666468457,19.0,T,4
1645385027.7197714,1940,0,0,,42.33917644,-71.08431595666667,4.797,328298.0349599173,4689539.6681139,19.0,T,4
1645385027.92338,1941,0,0,,42.33917644166666,-71.08431591,4.795,328298.0388089254,4689539.668204733,19.0,T,4
1645385028.1285098,1942,0,0,,42.33917645666667,-71.08431591333334,4.792,328298.0385751496,4689539.669877101,19.0,T,4
1645385028.314342,1943,0,0,,42.339176473333325,-71.08431592000001,4.791,328298.0380713019,4689539.671741269,19.0,T,4
1645385028.5287218,1944,0,0,,42.33917645666667,-71.08431589499999,4.794,328298.04008547706,4689539.66984008,19.0,T,4
1645385028.7162564,1945,0,0,,42.33917646666667,-71.08431589833333,4.8,328298.0398380918,4689539.670957235,19.0,T,4
1645385028.931723,1946,0,0,,42.33917634166668,-71.08431601333332,4.811,328298.0300239797,4689539.657309163,19.0,T,4
1645385029.1293292,1947,0,0,,42.33917634166668,-71.08431602333334,4.814,328298.02920016285,4689539.657329358,19.0,T,4
1645385029.32887,1948,0,0,,42.33917633666667,-71.08431600833333,4.819,328298.0304222766,4689539.656743853,19.0,T,4
1645385029.5196652,1949,0,0,,42.33917634666667,-71.084316015,4.816,328298.02990028705,4689539.65786774,19.0,T,4
1645385029.7271028,1950,0,0,,42.339176365,-71.08431598000001,4.815,328298.0328335413,4689539.65983284,19.0,T,4
1645385029.928805,1951,0,0,,42.33917641666667,-71.08431595333332,4.797,328298.0351710147,4689539.665516179,19.0,T,4
1645385030.1212516,1952,0,0,,42.339176463333324,-71.08431592000001,4.795,328298.03804408293,4689539.670630844,19.0,T,4
1645385030.310649,1953,0,0,,42.339176450000004,-71.08431592333334,4.794,328298.03773318673,4689539.669157012,19.0,T,4
1645385030.5307853,1954,0,0,,42.33917643,-71.08431596166666,4.801,328298.03452079196,4689539.6670135725,19.0,T,4
1645385030.7198765,1955,0,0,,42.33917645166666,-71.08431593666667,4.797,328298.0366393043,4689539.6693690065,19.0,T,4
1645385030.9347234,1956,0,0,,42.339176365,-71.08431600166666,4.808,328298.03104860964,4689539.659876592,19.0,T,4
1645385031.1240075,1957,0,0,,42.339176359999996,-71.084316015,4.809,328298.02993657906,4689539.659348303,19.0,T,4
1645385031.3199337,1958,0,0,,42.33917637166665,-71.08431600833333,4.809,328298.03051754297,4689539.660630335,19.0,T,4
1645385031.526124,1959,0,0,,42.33917638333334,-71.08431598333334,4.806,328298.0326088363,4689539.661875347,19.0,T,4
1645385031.728644,1960,0,0,,42.339176388333335,-71.08431598333334,4.807,328298.03262244584,4689539.662430559,19.0,T,4
1645385031.9158058,1961,0,0,,42.33917640333334,-71.08431601333332,4.797,328298.03019183007,4689539.664156777,19.0,T,4
1645385032.1281745,1962,0,0,,42.33917640833334,-71.08431603333332,4.795,328298.02855781,4689539.664752375,19.0,T,4
1645385032.3185031,1963,0,0,,42.33917640833334,-71.08431602333334,4.797,328298.0293816227,4689539.664732182,19.0,T,4
1645385032.526791,1964,0,0,,42.3391764,-71.08431603833333,4.796,328298.02812321915,4689539.663837118,19.0,T,4
1645385032.7128968,1965,0,0,,42.33917640833334,-71.08431601833333,4.8,328298.0297935332,4689539.664722085,19.0,T,4
1645385032.9145105,1966,0,0,,42.33917639,-71.08431598833333,4.794,328298.03221507603,4689539.662625726,19.0,T,4
1645385033.126523,1967,0,0,,42.339176395,-71.08431598000001,4.79,328298.0329151981,4689539.663164111,19.0,T,4
1645385033.3191912,1968,0,0,,42.339176395,-71.08431600333334,4.791,328298.0309929602,4689539.663211229,19.0,T,4
1645385033.527572,1969,0,0,,42.33917639333334,-71.08431596833333,4.791,328298.0338717806,4689539.662955481,19.0,T,4
1645385033.7193332,1970,0,0,,42.339176401666656,-71.084315975,4.791,328298.0333452504,4689539.663894296,19.0,T,4
1645385033.9256485,1971,0,0,,42.33917640333334,-71.08431599166667,4.792,328298.0319767617,4689539.664113024,19.0,T,4
1645385034.128958,1972,0,0,,42.339176398333336,-71.084315965,4.794,328298.03415999433,4689539.663503963,19.0,T,4
1645385034.3393435,1973,0,0,,42.33917640333334,-71.08431600333334,4.794,328298.0310156427,4689539.664136584,19.0,T,4
1645385034.5455508,1974,0,0,,42.33917643,-71.08431600166666,4.789,328298.03122553293,4689539.667094346,19.0,T,4
1645385034.7334285,1975,0,0,,42.33917642833334,-71.08431598000001,4.79,328298.03300592804,4689539.666865524,19.0,T,4
1645385034.9301822,1976,0,0,,42.339176368333334,-71.08431599833334,4.8,328298.0313322868,4689539.660240002,19.0,T,4
1645385035.1275475,1977,0,0,,42.339176359999996,-71.08431600166666,4.804,328298.0310350001,4689539.659321379,19.0,T,4
1645385035.3275986,1978,0,0,,42.339176365,-71.08431600000002,4.801,328298.03118590964,4689539.659873228,19.0,T,4
1645385035.5277126,1979,0,0,,42.339176381666654,-71.08431599000001,4.801,328298.03205508925,4689539.661703737,19.0,T,4
1645385035.7277274,1980,0,0,,42.33917637333334,-71.08431598000001,4.804,328298.0328562237,4689539.660758193,19.0,T,4
1645385035.9277692,1981,0,0,,42.339176365,-71.084315975,4.806,328298.03324544756,4689539.659822742,19.0,T,4
1645385036.127721,1982,0,0,,42.33917637333334,-71.08431596333334,4.804,328298.034229249,4689539.660724537,19.0,T,4
1645385036.3288033,1983,0,0,,42.33917638,-71.08431595666667,4.806,328298.0347966034,4689539.661451358,19.0,T,4
1645385036.515194,1984,0,0,,42.339176385,-71.08431595333332,4.804,328298.0350848213,4689539.6619998375,19.0,T,4
1645385036.72909,1985,0,0,,42.33917636666667,-71.08431597166667,4.807,328298.03352458833,4689539.660001082,19.0,T,4
1645385036.9156487,1986,0,0,,42.33917638,-71.08431594666665,4.806,328298.03562042024,4689539.661431164,19.0,T,4
1645385037.1309216,1987,0,0,,42.339176368333334,-71.08431592000001,4.805,328298.03778550273,4689539.66008182,19.0,T,4
1645385037.320316,1988,0,0,,42.339176385,-71.08431591499999,4.803,328298.0382427782,4689539.661922429,19.0,T,4
1645385037.5403292,1989,0,0,,42.33917637,-71.08431594000001,4.806,328298.0361424097,4689539.660307277,19.0,T,4
1645385037.7205322,1990,0,0,,42.339176391666655,-71.08431593499999,4.806,328298.0366132946,4689539.662703098,19.0,T,4
1645385037.9298143,1991,0,0,,42.33917638,-71.08431594333334,4.807,328298.0358950245,4689539.661424433,19.0,T,4
1645385038.1313293,1992,0,0,,42.339176385,-71.08431593666667,4.811,328298.03645784454,4689539.661966181,19.0,T,4
1645385038.3305125,1993,0,0,,42.339176381666654,-71.08431594833336,4.813,328298.0354876525,4689539.661619598,19.0,T,4
1645385038.5203085,1994,0,0,,42.339176375,-71.08431594000001,4.809,328298.0361560192,4689539.66086249,19.0,T,4
1645385038.7277722,1995,0,0,,42.339176398333336,-71.08431592333334,4.811,328298.03759255545,4689539.663419823,19.0,T,4
1645385038.9167423,1996,0,0,,42.33917638,-71.08431592000001,4.807,328298.03781725815,4689539.6613773145,19.0,T,4
1645385039.1254303,1997,0,0,,42.33917638333334,-71.084315925,4.805,328298.0374144248,4689539.661757551,19.0,T,4
1645385039.3145351,1998,0,0,,42.339176386666665,-71.084315925,4.806,328298.0374234978,4689539.662127693,19.0,T,4
1645385039.5358636,1999,0,0,,42.339176398333336,-71.08431590666667,4.806,328298.03896558075,4689539.663386167,19.0,T,4
1645385039.7159953,2000,0,0,,42.3391764,-71.08431590166666,4.804,328298.0393820277,4689539.663561139,19.0,T,4
1645385039.9249983,2001,0,0,,42.339176378333335,-71.08431590833335,4.805,328298.03877384064,4689539.661168684,19.0,T,4
1645385040.1318474,2002,0,0,,42.339176386666665,-71.08431591666667,4.804,328298.03811001254,4689539.662110865,19.0,T,4
1645385040.3288124,2003,0,0,,42.339176385,-71.08431590666667,4.803,328298.03892928874,4689539.661905601,19.0,T,4
1645385040.521307,2004,0,0,,42.339176388333335,-71.08431592000001,4.808,328298.03783994063,4689539.662302667,19.0,T,4
1645385040.7292032,2005,0,0,,42.339176398333336,-71.08431590166666,4.808,328298.0393774912,4689539.663376071,19.0,T,4
1645385040.9194937,2006,0,0,,42.339176385,-71.08431588833335,4.813,328298.0404396162,4689539.66186858,19.0,T,4
1645385041.1265833,2007,0,0,,42.33917637333334,-71.08431589499999,4.816,328298.0398586523,4689539.660586548,19.0,T,4
1645385041.32059,2008,0,0,,42.339176378333335,-71.08431590166666,4.813,328298.0393230533,4689539.661155222,19.0,T,4
1645385041.5358667,2009,0,0,,42.339176375,-71.08431591,4.812,328298.03862746555,4689539.660801909,19.0,T,4
1645385041.7248948,2010,0,0,,42.339176381666654,-71.08431590833335,4.811,328298.0387829136,4689539.661538824,19.0,T,4
1645385041.932925,2011,0,0,,42.33917638333334,-71.08431592166666,4.814,328298.03768903116,4689539.66175082,19.0,T,4
1645385042.1232128,2012,0,0,,42.339176381666654,-71.08431589666667,4.814,328298.03974403255,4689539.661515265,19.0,T,4
1645385042.3325932,2013,0,0,,42.339176398333336,-71.08431589666667,4.812,328298.03978939756,4689539.663365973,19.0,T,4
1645385042.5333054,2014,0,0,,42.339176395,-71.0843159,4.815,328298.0395057183,4689539.663002563,19.0,T,4
1645385042.7292504,2015,0,0,,42.339176378333335,-71.084315905,4.815,328298.039048447,4689539.661161953,19.0,T,4
1645385042.9272177,2016,0,0,,42.339176368333334,-71.084315885,4.819,328298.0406688596,4689539.660011142,19.0,T,4
1645385043.132115,2017,0,0,,42.33917641333334,-71.08431586166665,4.812,328298.0427135787,4689539.664960932,19.0,T,4
1645385043.3233998,2018,0,0,,42.339176401666656,-71.08431588833335,4.813,328298.04048498103,4689539.663719284,19.0,T,4
1645385043.5291674,2019,0,0,,42.33917640333334,-71.08431585833333,4.812,328298.042960966,4689539.663843777,19.0,T,4
1645385043.723506,2020,0,0,,42.339176391666655,-71.08431587833333,4.817,328298.04128157895,4689539.662588667,19.0,T,4
1645385043.9158676,2021,0,0,,42.33917641166666,-71.08431586166665,4.813,328298.04270904214,4689539.66477586,19.0,T,4
1645385044.138465,2022,0,0,,42.33917645166666,-71.08431582333333,4.805,328298.0459758771,4689539.669140146,19.0,T,4
1645385044.3173876,2023,0,0,,42.33917645333332,-71.08431582499999,4.803,328298.04584311147,4689539.6693285825,19.0,T,4
1645385044.5253937,2024,0,0,,42.339176493333326,-71.08431581500001,4.793,328298.04677580204,4689539.673750083,19.0,T,4
1645385044.7182825,2025,0,0,,42.33917649000001,-71.08431582333333,4.796,328298.0460802165,4689539.673396772,19.0,T,4
1645385044.9225342,2026,0,0,,42.33917649000001,-71.08431583500001,4.796,328298.0451190976,4689539.6734203305,19.0,T,4
1645385045.1172957,2027,0,0,,42.33917648833333,-71.08431585333334,4.798,328298.04360423365,4689539.67327228,19.0,T,4
1645385045.3252203,2028,0,0,,42.33917647833333,-71.08431586,4.799,328298.0430278041,4689539.67217532,19.0,T,4
1645385045.536045,2029,0,0,,42.33917646500001,-71.08431588333333,4.802,328298.0410692785,4689539.670741874,19.0,T,4
1645385045.7153852,2030,0,0,,42.339176480000006,-71.08431588,4.8,328298.04138471116,4689539.672400779,19.0,T,4
1645385045.917601,2031,0,0,,42.33917649166666,-71.08431581333333,4.793,328298.0469085677,4689539.6735616485,19.0,T,4
1645385046.122696,2032,0,0,,42.339176496666674,-71.08431581666667,4.796,328298.046647573,4689539.674123592,19.0,T,4
1645385046.3229578,2033,0,0,,42.33917650333333,-71.08431583,4.793,328298.04556729784,4689539.6748907985,19.0,T,4
1645385046.5280795,2034,0,0,,42.339176501666664,-71.08431584499999,4.793,328298.0443270382,4689539.674736018,19.0,T,4
1645385046.7263236,2035,0,0,,42.33917649833333,-71.08431585333334,4.797,328298.0436314526,4689539.674382705,19.0,T,4
1645385046.918341,2036,0,0,,42.33917642166666,-71.08431586,4.81,328298.0428735633,4689539.665882917,19.0,T,4
1645385047.1232812,2037,0,0,,42.33917641166666,-71.08431586333333,4.817,328298.04257174,4689539.664779225,19.0,T,4
1645385047.3216233,2038,0,0,,42.33917641833334,-71.08431589499999,4.815,328298.0399811376,4689539.665583454,19.0,T,4
1645385047.5323951,2039,0,0,,42.33917643,-71.08431586666667,4.81,328298.04234703735,4689539.666821733,19.0,T,4
1645385047.723095,2040,0,0,,42.33917644500001,-71.08431586666667,4.811,328298.0423878658,4689539.66848737,19.0,T,4
1645385047.9273322,2041,0,0,,42.33917645166666,-71.08431583833332,4.81,328298.044740156,4689539.669170436,19.0,T,4
1645385048.130252,2042,0,0,,42.33917644333332,-71.08431583666668,4.808,328298.0448547735,4689539.668241718,19.0,T,4
1645385048.3218741,2043,0,0,,42.33917645333332,-71.08431583500001,4.811,328298.0450192946,4689539.669348775,19.0,T,4
1645385048.5271513,2044,0,0,,42.339176448333326,-71.08431583,4.815,328298.04541759356,4689539.668783467,19.0,T,4
1645385048.7223575,2045,0,0,,42.339176463333324,-71.08431584666667,4.808,328298.0440853967,4689539.670482758,19.0,T,4
1645385048.9321728,2046,0,0,,42.339176480000006,-71.08431584166668,4.802,328298.04454266804,4689539.67232337,19.0,T,4
1645385049.1248765,2047,0,0,,42.339176483333326,-71.08431585333334,4.8,328298.0435906241,4689539.672717069,19.0,T,4
1645385049.3349078,2048,0,0,,42.33917651000001,-71.08431583166666,4.796,328298.0454481418,4689539.675634448,19.0,T,4
1645385049.5201735,2049,0,0,,42.33917648166666,-71.08431586666667,4.8,328298.0424876687,4689539.672558923,19.0,T,4
1645385049.7308857,2050,0,0,,42.339176496666674,-71.084315865,4.799,328298.04266579926,4689539.674221194,19.0,T,4
1645385049.9246037,2051,0,0,,42.33917648666667,-71.08431587499999,4.798,328298.04181476554,4689539.673130964,19.0,T,4
1645385050.148641,2052,0,0,,42.33917649833333,-71.08431587499999,4.792,328298.04184652097,4689539.674426459,19.0,T,4
1645385050.3191314,2053,0,0,,42.33917649499999,-71.08431589166666,4.792,328298.0404644206,4689539.674089971,19.0,T,4
1645385050.528239,2054,0,0,,42.339176516666676,-71.08431589333334,4.791,328298.04038609297,4689539.676499258,19.0,T,4
1645385050.7226686,2055,0,0,,42.339176516666676,-71.08431589499999,4.793,328298.0402487909,4689539.676502623,19.0,T,4
1645385050.9364505,2056,0,0,,42.33917648166666,-71.08431587,4.797,328298.04221306235,4689539.672565655,19.0,T,4
1645385051.1185687,2057,0,0,,42.339176501666664,-71.08431585833333,4.791,328298.04322861927,4689539.674762942,19.0,T,4
1645385051.3269048,2058,0,0,,42.33917651499999,-71.08431588666667,4.792,328298.04093076696,4689539.676300722,19.0,T,4
1645385051.5261464,2059,0,0,,42.33917650499999,-71.08431587833333,4.79,328298.04159006063,4689539.675173472,19.0,T,4
1645385051.7351832,2060,0,0,,42.33917649499999,-71.08431589833333,4.789,328298.0399152122,4689539.674103433,19.0,T,4
1645385051.9200056,2061,0,0,,42.33917651499999,-71.08431588833335,4.791,328298.0407934628,4689539.676304089,19.0,T,4
1645385052.1433628,2062,0,0,,42.339176473333325,-71.08431591499999,4.798,328298.03848321247,4689539.671731173,19.0,T,4
1645385052.3328798,2063,0,0,,42.33917647833333,-71.084315925,4.8,328298.0376730051,4689539.672306577,19.0,T,4
1645385052.5438695,2064,0,0,,42.33917648166666,-71.08431592000001,4.797,328298.0380939844,4689539.672666623,19.0,T,4
1645385052.723895,2065,0,0,,42.339176473333325,-71.084315925,4.799,328298.0376593956,4689539.671751366,19.0,T,4
1645385052.9330418,2066,0,0,,42.33917647500001,-71.08431588666667,4.799,328298.04082189105,4689539.67185903,19.0,T,4
1645385053.1278112,2067,0,0,,42.33917648666667,-71.08431587666668,4.801,328298.04167746135,4689539.67313433,19.0,T,4
1645385053.3266907,2068,0,0,,42.339176463333324,-71.08431589,4.8,328298.0405155293,4689539.670570264,19.0,T,4
1645385053.535439,2069,0,0,,42.33917645333332,-71.08431590333333,4.802,328298.0393898914,4689539.669486765,19.0,T,4
1645385053.7337883,2070,0,0,,42.33917646666667,-71.08431589499999,4.806,328298.040112696,4689539.670950503,19.0,T,4
1645385053.9241052,2071,0,0,,42.339176473333325,-71.08431590333333,4.801,328298.03944432933,4689539.671707613,19.0,T,4
1645385054.1332185,2072,0,0,,42.339176470000005,-71.0843159,4.803,328298.0397098605,4689539.671330742,19.0,T,4
1645385054.3203685,2073,0,0,,42.339176470000005,-71.08431590166666,4.806,328298.0395725605,4689539.6713341065,19.0,T,4
1645385054.5488486,2074,0,0,,42.33917646166666,-71.084315925,4.806,328298.0376276402,4689539.670455871,19.0,T,4
1645385054.7205627,2075,0,0,,42.33917646666667,-71.084315905,4.806,328298.03928888123,4689539.670970697,19.0,T,4
1645385054.9287846,2076,0,0,,42.33917644166666,-71.08431590333333,4.805,328298.0393581359,4689539.668191271,19.0,T,4
1645385055.1206088,2077,0,0,,42.339176448333326,-71.08431591166666,4.802,328298.0386897692,4689539.668948381,19.0,T,4
1645385055.3306797,2078,0,0,,42.33917645500001,-71.08431590666667,4.802,328298.0391198215,4689539.669678568,19.0,T,4
1645385055.540522,2079,0,0,,42.339176448333326,-71.08431591666667,4.801,328298.0382778629,4689539.668958479,19.0,T,4
1645385055.7274027,2080,0,0,,42.339176450000004,-71.08431589666667,4.806,328298.03993002896,4689539.669103162,19.0,T,4
1645385055.918253,2081,0,0,,42.33917644500001,-71.08431589166666,4.808,328298.0403283257,4689539.668537854,19.0,T,4
1645385056.144027,2082,0,0,,42.33917646166666,-71.08431590166666,4.806,328298.0395498781,4689539.670408753,19.0,T,4
1645385056.3287246,2083,0,0,,42.33917645500001,-71.08431588166665,4.807,328298.0411793615,4689539.669628084,19.0,T,4
1645385056.5441647,2084,0,0,,42.33917646666667,-71.08431589833333,4.806,328298.0398380918,4689539.670957235,19.0,T,4
1645385056.7261398,2085,0,0,,42.339176450000004,-71.08431588666667,4.806,328298.04075384367,4689539.6690829685,19.0,T,4
1645385056.9278364,2086,0,0,,42.339176415000004,-71.08431592666668,4.808,328298.03736331617,4689539.66527726,19.0,T,4
1645385057.1185782,2087,0,0,,42.33917641666667,-71.08431594666665,4.808,328298.0357202232,4689539.665502718,19.0,T,4
1645385057.332827,2088,0,0,,42.33917643,-71.08431594833336,4.806,328298.0356192109,4689539.666986647,19.0,T,4
1645385057.5424485,2089,0,0,,42.33917643,-71.08431594333334,4.807,328298.0360311193,4689539.666976551,19.0,T,4
1645385057.7235985,2090,0,0,,42.33917643666667,-71.08431594333334,4.808,328298.0360492653,4689539.667716834,19.0,T,4
1645385057.9251425,2091,0,0,,42.339176395,-71.08431592166666,4.816,328298.03772078664,4689539.663046315,19.0,T,4
1645385058.142188,2092,0,0,,42.339176398333336,-71.08431592833335,4.817,328298.0371806491,4689539.663429919,19.0,T,4
1645385058.3278913,2093,0,0,,42.33917641833334,-71.08431593166667,4.811,328298.03696048283,4689539.665657497,19.0,T,4
1645385058.5362298,2094,0,0,,42.33917642,-71.08431590333333,4.812,328298.03929916146,4689539.665785353,19.0,T,4
1645385058.718448,2095,0,0,,42.33917641666667,-71.08431592666668,4.813,328298.0373678527,4689539.66546233,19.0,T,4
1645385058.9308455,2096,0,0,,42.33917639333334,-71.08431595333332,4.818,328298.03510750376,4689539.66292519,19.0,T,4
1645385059.1244519,2097,0,0,,42.33917638,-71.08431594166666,4.824,328298.0360323266,4689539.661421068,19.0,T,4
1645385059.3331397,2098,0,0,,42.339176398333336,-71.08431593166667,4.819,328298.03690604493,4689539.663436651,19.0,T,4
1645385059.5229404,2099,0,0,,42.339176405,-71.08431593833333,4.819,328298.03637498035,4689539.664190396,19.0,T,4
1645385059.7257931,2100,0,0,,42.33917641666667,-71.08431590666667,4.818,328298.0390154822,4689539.665421942,19.0,T,4
1645385059.9258046,2101,0,0,,42.33917640833334,-71.08431591666667,4.821,328298.038168987,4689539.664516783,19.0,T,4
1645385060.1366215,2102,0,0,,42.33917642333334,-71.08431590666667,4.816,328298.0390336282,4689539.666162225,19.0,T,4
1645385060.3169365,2103,0,0,,42.33917642166666,-71.0843159,4.818,328298.0395783022,4689539.665963693,19.0,T,4
1645385060.5438035,2104,0,0,,42.33917641833334,-71.08431590333333,4.819,328298.03929462493,4689539.665600282,19.0,T,4
1645385060.7168207,2105,0,0,,42.33917640833334,-71.08431590833335,4.825,328298.03885549755,4689539.664499956,19.0,T,4
1645385060.9234817,2106,0,0,,42.33917641166666,-71.08431588333333,4.82,328298.04092411057,4689539.664819612,19.0,T,4
1645385061.1254332,2107,0,0,,42.33917641166666,-71.08431590166666,4.82,328298.0394137831,4689539.664856633,19.0,T,4
1645385061.3222682,2108,0,0,,42.33917641666667,-71.08431589499999,4.819,328298.03997660114,4689539.665398384,19.0,T,4
1645385061.550338,2109,0,0,,42.33917642,-71.08431587166666,4.819,328298.0419079099,4689539.665721406,19.0,T,4
1645385061.7293277,2110,0,0,,42.33917642833334,-71.08431588333333,4.818,328298.0409694755,4689539.66667032,19.0,T,4
1645385061.9208772,2111,0,0,,42.33917642666667,-71.08431590666667,4.821,328298.03904270113,4689539.6665323675,19.0,T,4
1645385062.1406965,2112,0,0,,42.33917642166666,-71.08431592333334,4.819,328298.03765606636,4689539.66601081,19.0,T,4
1645385062.3226945,2113,0,0,,42.33917643833334,-71.08431590666667,4.817,328298.03907445667,4689539.667827862,19.0,T,4
1645385062.5467048,2114,0,0,,42.339176450000004,-71.08431591833333,4.816,328298.0381450973,4689539.669146915,19.0,T,4
1645385062.7196808,2115,0,0,,42.33917644166666,-71.08431590333333,4.82,328298.0393581359,4689539.668191271,19.0,T,4
1645385062.9331033,2116,0,0,,42.339176435000006,-71.08431591,4.819,328298.0387907794,4689539.667464452,19.0,T,4
1645385063.1267965,2117,0,0,,42.33917643666667,-71.08431590166666,4.818,328298.03948183067,4689539.667632695,19.0,T,4
1645385063.3254526,2118,0,0,,42.33917644500001,-71.08431589333334,4.818,328298.0401910236,4689539.66854122,19.0,T,4
1645385063.5169296,2119,0,0,,42.339176448333326,-71.08431589666667,4.819,328298.03992549237,4689539.668918091,19.0,T,4
1645385063.7319338,2120,0,0,,42.33917643666667,-71.08431591,4.82,328298.0387953159,4689539.667649522,19.0,T,4
1645385063.9238596,2121,0,0,,42.339176405,-71.08431590833335,4.827,328298.03884642455,4689539.664129815,19.0,T,4
1645385064.1411812,2122,0,0,,42.339176415000004,-71.08431589333334,4.823,328298.04010936676,4689539.665209949,19.0,T,4
1645385064.3229012,2123,0,0,,42.33917645166666,-71.08431589166666,4.819,328298.0403464717,4689539.6692781355,19.0,T,4
1645385064.546391,2124,0,0,,42.33917644166666,-71.084315885,4.822,328298.04086846544,4689539.66815425,19.0,T,4
1645385064.7183988,2125,0,0,,42.33917646166666,-71.08431588666667,4.818,328298.04078559915,4689539.670378462,19.0,T,4
1645385064.9303737,2126,0,0,,42.33917643166666,-71.08431588833335,4.822,328298.040566638,4689539.667050556,19.0,T,4
1645385065.1208553,2127,0,0,,42.33917643666667,-71.08431590166666,4.823,328298.03948183067,4689539.667632695,19.0,T,4
1645385065.3308794,2128,0,0,,42.33917642833334,-71.08431590166666,4.824,328298.03945914813,4689539.666707341,19.0,T,4
1645385065.5437045,2129,0,0,,42.33917642833334,-71.08431591333334,4.823,328298.03849802923,4689539.6667309,19.0,T,4
1645385065.731094,2130,0,0,,42.33917643666667,-71.0843159,4.821,328298.03961913066,4689539.667629329,19.0,T,4
1645385065.9260542,2131,0,0,,42.33917644333332,-71.08431585500001,4.823,328298.043344444,4689539.668278739,19.0,T,4
1645385066.1358795,2132,0,0,,42.33917644,-71.08431588,4.82,328298.04127583525,4689539.667959083,19.0,T,4
1645385066.3313088,2133,0,0,,42.33917646166666,-71.08431588166665,4.817,328298.0411975075,4689539.670368365,19.0,T,4
1645385066.5326827,2134,0,0,,42.33917645500001,-71.084315865,4.819,328298.0425523869,4689539.669594428,19.0,T,4
1645385066.7279508,2135,0,0,,42.33917645833333,-71.084315865,4.819,328298.0425614598,4689539.669964569,19.0,T,4
1645385066.9314985,2136,0,0,,42.33917646666667,-71.08431587666668,4.817,328298.04162302346,4689539.670913482,19.0,T,4
1645385067.1298223,2137,0,0,,42.339176450000004,-71.08431586333333,4.819,328298.04267607944,4689539.669035851,19.0,T,4
1645385067.3278375,2138,0,0,,42.33917645833333,-71.084315865,4.816,328298.0425614598,4689539.669964569,19.0,T,4
1645385067.5253437,2139,0,0,,42.33917646500001,-71.08431586,4.819,328298.0429915122,4689539.670694755,19.0,T,4
1645385067.7312605,2140,0,0,,42.33917645333332,-71.08431586666667,4.82,328298.0424105483,4689539.669412722,19.0,T,4
1645385067.9260342,2141,0,0,,42.33917645333332,-71.08431589833333,4.819,328298.0398017998,4689539.669476667,19.0,T,4
1645385068.135901,2142,0,0,,42.33917645833333,-71.084315885,4.819,328298.0409138303,4689539.6700049555,19.0,T,4
1645385068.3329687,2143,0,0,,42.33917646500001,-71.08431588166665,4.82,328298.0412065806,4689539.670738508,19.0,T,4
1645385068.542984,2144,0,0,,42.33917647166666,-71.084315885,4.817,328298.0409501223,4689539.67148552,19.0,T,4
1645385068.733795,2145,0,0,,42.33917647166666,-71.08431589,4.817,328298.0405382118,4689539.671495617,19.0,T,4
1645385068.934605,2146,0,0,,42.33917645500001,-71.08431588666667,4.82,328298.04076745315,4689539.66963818,19.0,T,4
1645385069.1297872,2147,0,0,,42.33917647166666,-71.08431587333334,4.819,328298.04191123706,4689539.671461961,19.0,T,4
1645385069.3271496,2148,0,0,,42.33917647500001,-71.08431588333333,4.816,328298.04109649744,4689539.671852299,19.0,T,4
1645385069.5261056,2149,0,0,,42.339176463333324,-71.08431587333334,4.821,328298.0418885546,4689539.670536608,19.0,T,4
1645385069.7309155,2150,0,0,,42.339176460000004,-71.08431587833333,4.821,328298.0414675753,4689539.670176565,19.0,T,4
1645385069.9291513,2151,0,0,,42.33917645666667,-71.08431586333333,4.815,328298.04269422544,4689539.669776134,19.0,T,4
1645385070.1405115,2152,0,0,,42.339176463333324,-71.08431587666668,4.815,328298.0416139504,4689539.670543339,19.0,T,4
1645385070.3187723,2153,0,0,,42.33917645500001,-71.08431585166666,4.817,328298.04365080793,4689539.669567503,19.0,T,4
1645385070.532376,2154,0,0,,42.33917648500001,-71.08431583833332,4.815,328298.04483088595,4689539.6728718495,19.0,T,4
1645385070.719956,2155,0,0,,42.33917647166666,-71.08431587833333,4.814,328298.0414993308,4689539.671472058,19.0,T,4
1645385070.93409,2156,0,0,,42.33917645833333,-71.08431591,4.812,328298.03885429027,4689539.67005544,19.0,T,4
1645385071.1251357,2157,0,0,,42.339176460000004,-71.08431592000001,4.814,328298.03803501,4689539.670260704,19.0,T,4
1645385071.3269973,2158,0,0,,42.33917645833333,-71.08431589166666,4.815,328298.0403646177,4689539.670018419,19.0,T,4
1645385071.521762,2159,0,0,,42.33917646500001,-71.08431588666667,4.813,328298.0407946721,4689539.670748605,19.0,T,4
1645385071.7278035,2160,0,0,,42.339176473333325,-71.08431588,4.813,328298.0413665651,4689539.671660495,19.0,T,4
1645385071.9177022,2161,0,0,,42.33917647833333,-71.08431589833333,4.809,328298.03986984724,4689539.672252729,19.0,T,4
1645385072.139641,2162,0,0,,42.33917647666667,-71.08431590333333,4.807,328298.0394534023,4689539.672077756,19.0,T,4
1645385072.318035,2163,0,0,,42.339176470000005,-71.0843159,4.813,328298.0397098605,4689539.671330742,19.0,T,4
1645385072.5286968,2164,0,0,,42.33917647666667,-71.0843159,4.81,328298.0397280066,4689539.672071026,19.0,T,4
1645385072.717784,2165,0,0,,42.339176480000006,-71.08431591,4.811,328298.03891326475,4689539.67246136,19.0,T,4
1645385072.933769,2166,0,0,,42.33917645833333,-71.08431591166666,4.807,328298.0387169882,4689539.670058805,19.0,T,4
1645385073.1207583,2167,0,0,,42.339176470000005,-71.08431590166666,4.81,328298.0395725605,4689539.6713341065,19.0,T,4
1645385073.3321443,2168,0,0,,42.33917648500001,-71.08431589833333,4.807,328298.03988799325,4689539.67299301,19.0,T,4
1645385073.5260458,2169,0,0,,42.339176483333326,-71.08431590833335,4.808,328298.03905963985,4689539.672828133,19.0,T,4
1645385073.7285829,2170,0,0,,42.339176496666674,-71.084315905,4.806,328298.0393705382,4689539.674301968,19.0,T,4
1645385073.9168687,2171,0,0,,42.33917647833333,-71.08431589666667,4.807,328298.04000714933,4689539.672249362,19.0,T,4
1645385074.1425135,2172,0,0,,42.3391764,-71.08431596000001,4.813,328298.0345764371,4689539.663678935,19.0,T,4
1645385074.3240721,2173,0,0,,42.33917641333334,-71.08431597,4.81,328298.0337889143,4689539.665179696,19.0,T,4
1645385074.5337164,2174,0,0,,42.33917643333332,-71.08431593499999,4.81,328298.036726707,4689539.667329864,19.0,T,4
1645385074.7262185,2175,0,0,,42.33917644,-71.08431593333331,4.808,328298.03688215517,4689539.668066782,19.0,T,4
1645385074.9312055,2176,0,0,,42.339176435000006,-71.08431594000001,4.809,328298.03631933307,4689539.667525033,19.0,T,4
1645385075.1204865,2177,0,0,,42.33917644666667,-71.08431595166667,4.806,328298.0353899717,4689539.668844086,19.0,T,4
1645385075.331278,2178,0,0,,42.33917646166666,-71.08431593666667,4.806,328298.0366665233,4689539.67047943,19.0,T,4
1645385075.5268302,2179,0,0,,42.339176463333324,-71.08431594166666,4.807,328298.03625915135,4689539.670674598,19.0,T,4
1645385075.7265959,2180,0,0,,42.33917646166666,-71.08431594333334,4.809,328298.03611731273,4689539.670492893,19.0,T,4
1645385075.9248943,2181,0,0,,42.33917642166666,-71.08431596166666,4.808,328298.0344981095,4689539.666088219,19.0,T,4
1645385076.137475,2182,0,0,,42.33917643333332,-71.08431597333332,4.808,328298.03356874804,4689539.667407271,19.0,T,4
1645385076.3246136,2183,0,0,,42.33917641666667,-71.08431595166667,4.814,328298.0353083147,4689539.665512813,19.0,T,4
1645385076.5264072,2184,0,0,,42.33917643666667,-71.08431593833333,4.809,328298.0364611738,4689539.667706737,19.0,T,4
1645385076.7193062,2185,0,0,,42.339176415000004,-71.08431596333334,4.814,328298.0343426614,4689539.665351303,19.0,T,4
1645385076.9336998,2186,0,0,,42.3391764,-71.08431594000001,4.815,328298.0362240666,4689539.663638548,19.0,T,4
1645385077.119484,2187,0,0,,42.339176386666665,-71.08431595166667,4.818,328298.03522665775,4689539.662181543,19.0,T,4
1645385077.3317416,2188,0,0,,42.33917638333334,-71.08431593333331,4.817,328298.0367279143,4689539.661774379,19.0,T,4
1645385077.524844,2189,0,0,,42.33917640833334,-71.08431593333331,4.815,328298.0367959617,4689539.66455044,19.0,T,4
1645385077.7255096,2190,0,0,,42.339176395,-71.08431592000001,4.821,328298.03785808664,4689539.66304295,19.0,T,4
1645385077.9212346,2191,0,0,,42.339176391666655,-71.08431591166666,4.818,328298.03853552835,4689539.662655979,19.0,T,4
1645385078.134493,2192,0,0,,42.33917640333334,-71.0843159,4.815,328298.03952840075,4689539.663927916,19.0,T,4
1645385078.321693,2193,0,0,,42.3391764,-71.08431591833333,4.816,328298.03800900246,4689539.663594795,19.0,T,4
1645385078.5314589,2194,0,0,,42.33917640833334,-71.084315925,4.817,328298.0374824723,4689539.664533612,19.0,T,4
1645385078.7249424,2195,0,0,,42.33917641166666,-71.08431591333334,4.819,328298.03845266416,4689539.664880193,19.0,T,4
1645385078.9267495,2196,0,0,,42.339176385,-71.08431592000001,4.824,328298.0378308677,4689539.661932526,19.0,T,4
1645385079.1305127,2197,0,0,,42.339176386666665,-71.08431591333334,4.825,328298.0383846168,4689539.6621041335,19.0,T,4
1645385079.3347201,2198,0,0,,42.33917639,-71.08431592166666,4.826,328298.03770717717,4689539.662491103,19.0,T,4
1645385079.517173,2199,0,0,,42.339176385,-71.08431591166666,4.825,328298.03851738246,4689539.661915698,19.0,T,4
1645385079.7279124,2200,0,0,,42.339176391666655,-71.08431591333334,4.827,328298.03839822626,4689539.662659345,19.0,T,4
1645385079.9270163,2201,0,0,,42.33917641833334,-71.08431585833333,4.827,328298.0430017945,4689539.665509411,19.0,T,4
1645385080.1318936,2202,0,0,,42.33917641,-71.08431587333334,4.827,328298.04174338677,4689539.664614349,19.0,T,4
1645385080.3251522,2203,0,0,,42.3391764,-71.084315865,4.827,328298.0424026825,4689539.663487096,19.0,T,4
1645385080.5289197,2204,0,0,,42.33917641666667,-71.08431586166665,4.825,328298.04272265173,4689539.665331072,19.0,T,4
1645385080.7235844,2205,0,0,,42.339176388333335,-71.08431584833335,4.833,328298.0437439502,4689539.662157946,19.0,T,4
1645385080.930677,2206,0,0,,42.339176405,-71.08431584333333,4.835,328298.04420122365,4689539.663998557,19.0,T,4
1645385081.1214602,2207,0,0,,42.33917642,-71.08431584833335,4.828,328298.04383014364,4689539.665674288,19.0,T,4
1645385081.3308938,2208,0,0,,42.339176405,-71.08431582666667,4.83,328298.0455742489,4689539.663964902,19.0,T,4
1645385081.5272727,2209,0,0,,42.339176405,-71.08431584333333,4.834,328298.04420122365,4689539.663998557,19.0,T,4
1645385081.7336066,2210,0,0,,42.339176415000004,-71.08431585666668,4.829,328298.04313002154,4689539.665135905,19.0,T,4
1645385081.9256299,2211,0,0,,42.33917642,-71.08431584,4.831,328298.0445166563,4689539.66565746,19.0,T,4
1645385082.1453412,2212,0,0,,42.33917639,-71.08431584666667,4.832,328298.043885791,4689539.662339651,19.0,T,4
1645385082.3279328,2213,0,0,,42.339176386666665,-71.08431585,4.83,328298.0436021137,4689539.6619762415,19.0,T,4
1645385082.5261545,2214,0,0,,42.339176396666666,-71.08431586166665,4.833,328298.0426682137,4689539.6631102245,19.0,T,4
1645385082.71879,2215,0,0,,42.33917640333334,-71.08431585500001,4.831,328298.04323556816,4689539.663837045,19.0,T,4
1645385082.9253085,2216,0,0,,42.33917641,-71.08431581166666,4.827,328298.04682358156,4689539.664489822,19.0,T,4
1645385083.1270938,2217,0,0,,42.33917641833334,-71.08431582333333,4.826,328298.0458851472,4689539.665438733,19.0,T,4
1645385083.3309903,2218,0,0,,42.33917642166666,-71.08431581833332,4.828,328298.0463061286,4689539.665798779,19.0,T,4
1645385083.5205946,2219,0,0,,42.33917641166666,-71.08431580500002,4.832,328298.0473773264,4689539.664661429,19.0,T,4
1645385083.7310925,2220,0,0,,42.33917640833334,-71.08431583666668,4.829,328298.0447595072,4689539.664355236,19.0,T,4
1645385083.920826,2221,0,0,,42.33917641166666,-71.08431580166668,4.828,328298.04765193275,4689539.664654698,19.0,T,4
1645385084.1310368,2222,0,0,,42.33917642666667,-71.08431579166665,4.827,328298.0485165781,4689539.666300141,19.0,T,4
1645385084.318372,2223,0,0,,42.33917644333332,-71.08431577166665,4.823,328298.05020957463,4689539.668110459,19.0,T,4
1645385084.5238552,2224,0,0,,42.33917644500001,-71.08431577666667,4.825,328298.04980220064,4689539.668305628,19.0,T,4
1645385084.7224863,2225,0,0,,42.33917643666667,-71.08431575833332,4.827,328298.05128984764,4689539.667343253,19.0,T,4
1645385084.928278,2226,0,0,,42.33917643333332,-71.08431581166666,4.829,328298.04688709247,4689539.66708081,19.0,T,4
1645385085.1168272,2227,0,0,,42.33917644,-71.08431579500001,4.828,328298.04827826377,4689539.667787437,19.0,T,4
1645385085.3267643,2228,0,0,,42.33917643166666,-71.08431581666667,4.826,328298.04647064966,4689539.666905835,19.0,T,4
1645385085.5252035,2229,0,0,,42.33917643,-71.08431582,4.825,328298.04619150684,4689539.666727497,19.0,T,4
1645385085.729071,2230,0,0,,42.339176435000006,-71.08431579833332,4.829,328298.04799005005,4689539.667238957,19.0,T,4
1645385085.9171512,2231,0,0,,42.33917638,-71.08431586,4.844,328298.04276015086,4689539.661256153,19.0,T,4
1645385086.14179,2232,0,0,,42.339176349999995,-71.08431586333333,4.85,328298.04240388976,4689539.657931612,19.0,T,4
1645385086.325169,2233,0,0,,42.33917636666667,-71.08431588333333,4.845,328298.04080162523,4689539.659822705,19.0,T,4
1645385086.5204911,2234,0,0,,42.339176368333334,-71.08431585500001,4.843,328298.0431403017,4689539.659950561,19.0,T,4
1645385086.7232568,2235,0,0,,42.33917635666667,-71.08431588,4.845,328298.0410490104,4689539.65870555,19.0,T,4
1645385086.9315045,2236,0,0,,42.339176323333334,-71.08431589833333,4.854,328298.0394479531,4689539.655041159,19.0,T,4
1645385087.117306,2237,0,0,,42.33917635166668,-71.084315865,4.846,328298.0422711242,4689539.658120049,19.0,T,4
1645385087.3246877,2238,0,0,,42.33917634833333,-71.08431590166666,4.85,328298.03924139636,4689539.65782395,19.0,T,4
1645385087.5244355,2239,0,0,,42.33917634166668,-71.0843159,4.849,328298.0393605504,4689539.657080304,19.0,T,4
1645385087.729479,2240,0,0,,42.33917630333333,-71.08431590833335,4.859,328298.03856969834,4689539.652840506,19.0,T,4
1645385087.9236853,2241,0,0,,42.33917635666667,-71.08431582,4.843,328298.045991901,4689539.658584389,19.0,T,4
1645385088.1404185,2242,0,0,,42.339176385,-71.08431579666667,4.834,328298.0479912573,4689539.661683472,19.0,T,4
1645385088.333897,2243,0,0,,42.33917635666667,-71.08431582666667,4.837,328298.0454426905,4689539.658597852,19.0,T,4
1645385088.5324097,2244,0,0,,42.33917637333334,-71.08431579666667,4.834,328298.04795950186,4689539.660387977,19.0,T,4
1645385088.7231257,2245,0,0,,42.339176381666654,-71.08431581666667,4.833,328298.0463345548,4689539.661353716,19.0,T,4
1645385088.9326305,2246,0,0,,42.339176343333335,-71.08431583666668,4.838,328298.0445825838,4689539.6571374815,19.0,T,4
